[
  {
    "name": "코스모스 상점",
    "address": "서울특별시 성동구 서울특별시 성동구 성수이로7길 27, 서울숲코오롱디지탈타워 1층",
    "category": "휴게음식점",
    "menu_type": "과자점",
    "certification": "채식음식점",
    "tel": "0507-1402-7878",
    "lat": "37.5415634",
    "lng": "127.053431",
    "id": "c2cfbd47-0184-40cb-8bd0-efe4c0406d1a"
  },
  {
    "name": "앞으로의빵집",
    "address": "서울특별시 종로구 서울특별시 종로구 삼일대로32가길 29-1 ",
    "category": "휴게음식점",
    "menu_type": "과자점",
    "certification": "채식음식점",
    "tel": null,
    "lat": "37.574693",
    "lng": "126.989349",
    "id": "c9679367-6046-4ed9-b9d3-12872b5f0eab"
  },
  {
    "name": "마루 자연식 김밥",
    "address": "서울특별시 종로구 서울특별시 종로구 인사동길 35-4 105호 ",
    "category": "일반음식점",
    "menu_type": "한식",
    "certification": "채식음식점",
    "tel": "0507-1324-2565",
    "lat": "37.573",
    "lng": "126.984864",
    "id": "9975dbec-082b-422c-acfb-d60bdb85b102"
  },
  {
    "name": "한과채",
    "address": "서울특별시 종로구 서울특별시 종로구 인사동10길 13 ",
    "category": "일반음식점",
    "menu_type": "한식",
    "certification": "채식음식점",
    "tel": "02-720-2802",
    "lat": "37.5743438",
    "lng": "126.985715",
    "id": "59f4370e-df71-4436-ba93-7306d8f2c806"
  },
  {
    "name": "소이로움",
    "address": "서울특별시 종로구 서울특별시 종로구 필운대로 41 ",
    "category": "일반음식점",
    "menu_type": "한식",
    "certification": "채식음식점",
    "tel": "02-586-8088",
    "lat": "37.5796836",
    "lng": "126.968599",
    "id": "96c585f4-3d7c-410d-8641-f4a3d122277e"
  },
  {
    "name": "마지",
    "address": "서울특별시 종로구 서울특별시 종로구 자하문로5길 19 ",
    "category": "일반음식점",
    "menu_type": "한식",
    "certification": "채식음식점",
    "tel": "0507-1418-5228",
    "lat": "37.5776283",
    "lng": "126.970809",
    "id": "1c7baab5-06fc-496c-b3ee-a1072d955a28"
  },
  {
    "name": "오세계향",
    "address": "서울특별시 종로구 서울특별시 종로구 인사동12길 14-5 ",
    "category": "일반음식점",
    "menu_type": "한식",
    "certification": "채식음식점",
    "tel": "02-735-7171",
    "lat": "37.574684",
    "lng": "126.985259",
    "id": "bcf1df34-172b-4978-b1ad-7633e2259ede"
  },
  {
    "name": "큔",
    "address": "서울특별시 종로구 서울특별시 종로구 자하문로26길 17-2, 1층 ",
    "category": "일반음식점",
    "menu_type": "한식",
    "certification": "채식음식점",
    "tel": "0507-1366-0591",
    "lat": "37.5846976",
    "lng": "126.972269",
    "id": "adcbd466-15d3-41eb-bf0e-1b3f8ddf4f23"
  },
  {
    "name": "산촌",
    "address": "서울특별시 종로구 서울특별시 종로구 인사동길 30-13 ",
    "category": "일반음식점",
    "menu_type": "한식",
    "certification": "채식음식점",
    "tel": "02-735-0312",
    "lat": "37.5737970",
    "lng": "126.986260",
    "id": "9af48807-a2bc-45c2-ad05-75297d59f533"
  },
  {
    "name": "발우공양",
    "address": "서울특별시 종로구 서울특별시 종로구 우정국로 56, 템플스테이 통합정보센터 5층 ",
    "category": "일반음식점",
    "menu_type": "한식",
    "certification": "채식음식점",
    "tel": "02-733-2081",
    "lat": "37.5738677",
    "lng": "126.983184",
    "id": "259f5db5-4959-4ac5-9d58-234d160ec096"
  },
  {
    "name": "오베흐트",
    "address": "서울특별시 중구 서울특별시 중구 퇴계로10길 34 ",
    "category": "휴게음식점",
    "menu_type": "과자점",
    "certification": "채식음식점",
    "tel": "0507-1411-6404",
    "lat": "37.5581158",
    "lng": "126.981085",
    "id": "d0c23b7d-8921-4ce6-98fd-177bcef44677"
  },
  {
    "name": "히든젬",
    "address": "서울특별시 중구 서울 중구 소공로6길 28 1층",
    "category": "휴게음식점",
    "menu_type": "과자점",
    "certification": "채식음식점",
    "tel": "0507-1369-8022",
    "lat": "37.5584363",
    "lng": "126.984564",
    "id": "bf9e358e-7c41-4d15-b6a1-ae5643224241"
  },
  {
    "name": "코코너즘",
    "address": "서울특별시 중구 서울 중구 퇴계로36길 32 코코너즘",
    "category": "휴게음식점",
    "menu_type": "과자점",
    "certification": "채식음식점",
    "tel": "070-8805-9756",
    "lat": "37.5603490",
    "lng": "126.995061",
    "id": "bfb14d80-5d9f-4f95-bfbd-e2930393bdbc"
  },
  {
    "name": "그라운드125",
    "address": "서울특별시 중구 서울 중구 동호로14길 7 비에스빌딩 2층",
    "category": "휴게음식점",
    "menu_type": "과자점",
    "certification": "채식음식점",
    "tel": "0507-1485-1269",
    "lat": "37.5561017",
    "lng": "127.010308",
    "id": "de7c87b5-881f-424f-917a-d35c0e135ca4"
  },
  {
    "name": "넬보스코 남촌빵집",
    "address": "서울특별시 중구 서울 중구 퇴계로8길 16 1층",
    "category": "휴게음식점",
    "menu_type": "과자점",
    "certification": "채식음식점",
    "tel": "0507-1423-9401",
    "lat": "37.558697",
    "lng": "126.979681",
    "id": "93c72398-82c5-47a4-b1eb-89943f95c82d"
  },
  {
    "name": "온더무브",
    "address": "서울특별시 중구 서울 중구 창경궁로5길 5 을지공간 건물 3, 5층",
    "category": "일반음식점",
    "menu_type": "한식",
    "certification": "채식음식점",
    "tel": null,
    "lat": "37.5671132",
    "lng": "126.997689",
    "id": "b76a5998-c692-465e-9806-be1e90dcae83"
  },
  {
    "name": "지금 여기가 맨 앞",
    "address": "서울특별시 중구 서울 중구 을지로20길 16 3층",
    "category": "일반음식점",
    "menu_type": "한식",
    "certification": "채식음식점",
    "tel": "0507-1346-3759",
    "lat": "37.5656940",
    "lng": "126.995242",
    "id": "954757a2-c32e-40e6-93ac-49d23c84a808"
  },
  {
    "name": "에이투지휴게음식점",
    "address": "서울특별시 중구 서울 중구 세종대로 136 SFC몰 F&B 지하2층 220호",
    "category": "일반음식점",
    "menu_type": "한식",
    "certification": "채식음식점",
    "tel": "0507-1427-5129",
    "lat": "37.5684143",
    "lng": "126.978283",
    "id": "ebfbaacd-a4d2-431e-a8af-dd86dbb3a54e"
  },
  {
    "name": "죠티인도레스토랑",
    "address": "서울특별시 중구 서울 중구 서애로 12-4 고려빌딩",
    "category": "일반음식점",
    "menu_type": "한식",
    "certification": "채식음식점",
    "tel": "0507-1400-7305",
    "lat": "37.5613157",
    "lng": "126.997938",
    "id": "790b933f-2b17-4120-88b4-92e0e349bc98"
  },
  {
    "name": "목멱산방",
    "address": "서울특별시 중구 서울 중구 퇴계로20길 71 1층 목멱산방",
    "category": "일반음식점",
    "menu_type": "한식",
    "certification": "채식음식점",
    "tel": "02-318-4790",
    "lat": "37.5581131",
    "lng": "126.986887",
    "id": "8794fa64-8ef9-48bd-b78f-d714e11f4c10"
  },
  {
    "name": "브레라",
    "address": "서울특별시 중구 서울 중구 동호로17길 295 대명빌딩2층",
    "category": "일반음식점",
    "menu_type": "한식",
    "certification": "채식음식점",
    "tel": "02-2236-0770",
    "lat": "37.5483844",
    "lng": "127.006943",
    "id": "dd362a35-c696-4407-943e-3767128334d6"
  },
  {
    "name": "적수방",
    "address": "서울특별시 중구 서울 중구 동호로24길 7-6 지하1층",
    "category": "일반음식점",
    "menu_type": "한식",
    "certification": "채식음식점",
    "tel": null,
    "lat": "37.5597160",
    "lng": "127.004871",
    "id": "05be49a8-0aff-4610-ac89-eb550a6a3cfd"
  },
  {
    "name": "비건키친",
    "address": "서울특별시 중구 서울 중구 퇴계로20길 21 1층",
    "category": "일반음식점",
    "menu_type": "한식",
    "certification": "채식음식점",
    "tel": "02-777-8819",
    "lat": "37.5592634",
    "lng": "126.985975",
    "id": "e0e28153-59c9-4fa1-af82-07a6e5269c8c"
  },
  {
    "name": "고사리 익스프레스",
    "address": "서울특별시 중구 서울 중구 퇴계로85길 12-10 1층",
    "category": "일반음식점",
    "menu_type": "한식",
    "certification": "채식음식점",
    "tel": "02-2039-3140",
    "lat": "37.5662700",
    "lng": "127.020009",
    "id": "9f27a025-3490-418b-b205-d04871a9897c"
  },
  {
    "name": "구르카 인도레스토랑",
    "address": "서울특별시 중구 서울 중구 명동10길 16-1 지상 5층 구르카",
    "category": "일반음식점",
    "menu_type": "한식",
    "certification": "채식음식점",
    "tel": "02-775-8860",
    "lat": "37.5630680",
    "lng": "126.985185",
    "id": "3b4125f0-01d7-40f1-a0ec-54b5170d881d"
  },
  {
    "name": "빠르크 정동점",
    "address": "서울특별시 중구 서울 중구 서소문로 89-20 1동 1층 105호",
    "category": "일반음식점",
    "menu_type": "한식",
    "certification": "채식음식점",
    "tel": "0507-1326-2022",
    "lat": "37.5632542",
    "lng": "126.97203",
    "id": "60f12434-afa4-4587-a642-31745c22d50b"
  },
  {
    "name": "페이퍼파스타by을지로그랑블루",
    "address": "서울특별시 중구 서울 중구 마른내로4길 10 . 1층",
    "category": "일반음식점",
    "menu_type": "한식",
    "certification": "채식음식점",
    "tel": "0507-1485-1091",
    "lat": "37.5638685",
    "lng": "126.993797",
    "id": "716a31f9-8b18-4133-beb5-ce2418295ba2"
  },
  {
    "name": "강가",
    "address": "서울특별시 중구 서울 중구 세종대로 136 서울파이낸스센터",
    "category": "일반음식점",
    "menu_type": "한식",
    "certification": "채식음식점",
    "tel": "02-3783-0610",
    "lat": "37.5684143",
    "lng": "126.978283",
    "id": "ad1fc92b-77f4-49ee-8905-13e37260578a"
  },
  {
    "name": "아그라 센터원점",
    "address": "서울특별시 중구 서울 중구 을지로5길 26 미래에셋빌딩 지하2층",
    "category": "일반음식점",
    "menu_type": "한식",
    "certification": "채식음식점",
    "tel": "0507-1327-8977",
    "lat": "37.567343",
    "lng": "126.985144",
    "id": "caac1c63-da89-41ee-8d6d-d241b440556e"
  },
  {
    "name": "홍밀밀",
    "address": "서울특별시 중구 서울 중구 명동길 74 명동성당 가톨릭회관 신관 B-105호",
    "category": "일반음식점",
    "menu_type": "한식",
    "certification": "채식음식점",
    "tel": "070-4158-9811",
    "lat": "37.5632795",
    "lng": "126.987307",
    "id": "25ec422a-4513-4e96-8b6f-a0c08531ef3b"
  },
  {
    "name": "어쩌다농부 충무로점",
    "address": "서울특별시 중구 서울 중구 퇴계로27길 33 1층",
    "category": "일반음식점",
    "menu_type": "한식",
    "certification": "채식음식점",
    "tel": "0507-1363-3738",
    "lat": "37.5626254",
    "lng": "126.991243",
    "id": "723919bb-c43c-4bf3-b289-c0e8faeaa74d"
  },
  {
    "name": "굿니스클럽",
    "address": "서울특별시 용산구 서울 용산구 신흥로 99-9 지층",
    "category": "휴게음식점",
    "menu_type": "과자점",
    "certification": "채식음식점",
    "tel": "0507-1364-5084",
    "lat": "37.5449842",
    "lng": "126.984936",
    "id": "cbf9c52e-3edb-4955-b2b7-f8506a00894a"
  },
  {
    "name": "홀트",
    "address": "서울특별시 용산구 서울 용산구 백범로 324 1층",
    "category": "휴게음식점",
    "menu_type": "과자점",
    "certification": "채식음식점",
    "tel": "0507-1487-3319",
    "lat": "37.5381800",
    "lng": "126.964843",
    "id": "42784bec-9a3b-4e6e-8582-f65af488f968"
  },
  {
    "name": "빵어니스타 이태원점",
    "address": "서울특별시 용산구 서울 용산구 보광로55길 3 1층, 2층",
    "category": "휴게음식점",
    "menu_type": "과자점",
    "certification": "채식음식점",
    "tel": "0507-1335-7769",
    "lat": "37.5330050",
    "lng": "126.994126",
    "id": "7739eb18-f407-4439-a4bf-2d884340a45c"
  },
  {
    "name": "노노샵",
    "address": "서울특별시 용산구 서울 용산구 보광로 90 202호",
    "category": "휴게음식점",
    "menu_type": "과자점",
    "certification": "채식음식점",
    "tel": "0507-1465-1072",
    "lat": "37.5310625",
    "lng": "126.995842",
    "id": "3fa0e8ed-4f9b-48f6-816e-cc8fef4f3f9e"
  },
  {
    "name": "카무플라주",
    "address": "서울특별시 용산구 서울특별시 용산구 이태원로26길 19, 2층 ",
    "category": "일반음식점",
    "menu_type": "한식",
    "certification": "채식음식점",
    "tel": "0507-1446-3224",
    "lat": "37.5336356",
    "lng": "126.993565",
    "id": "5a511a1f-9eac-42ac-b7b4-e65473737ebd"
  },
  {
    "name": "휴게음식점 시바",
    "address": "서울특별시 용산구 서울특별시 용산구 한강대로 276-1 ",
    "category": "일반음식점",
    "menu_type": "한식",
    "certification": "채식음식점",
    "tel": "0507-1352-1339",
    "lat": "37.5429582",
    "lng": "126.972821",
    "id": "d1c5755e-a4cc-447e-8e9d-78769566ae33"
  },
  {
    "name": "브레게티",
    "address": "서울특별시 용산구 서울특별시 용산구 보광로 124, 2층 ",
    "category": "일반음식점",
    "menu_type": "한식",
    "certification": "채식음식점",
    "tel": "0507-1430-5331",
    "lat": "37.5338375",
    "lng": "126.994280",
    "id": "4211efd8-b642-4c49-b9ea-6a4b3e21fe71"
  },
  {
    "name": "바이두부",
    "address": "서울특별시 용산구 서울특별시 용산구 소월로20길 10 ",
    "category": "일반음식점",
    "menu_type": "한식",
    "certification": "채식음식점",
    "tel": "0507-1378-7019",
    "lat": "37.5460966",
    "lng": "126.985189",
    "id": "bd792462-3ff6-4800-accb-c5d99e4f700a"
  },
  {
    "name": "비비스베지",
    "address": "서울특별시 용산구 서울 용산구 회나무로13가길 42 . 1층",
    "category": "일반음식점",
    "menu_type": "한식",
    "certification": "채식음식점",
    "tel": "0507-1447-1312",
    "lat": "37.5408520",
    "lng": "126.991994",
    "id": "16fc68ea-4455-43c0-9234-95215d6b54a1"
  },
  {
    "name": "흠마켓",
    "address": "서울특별시 용산구 서울특별시 용산구 신흥로5길 8 ",
    "category": "일반음식점",
    "menu_type": "한식",
    "certification": "채식음식점",
    "tel": null,
    "lat": "37.541880",
    "lng": "126.986625",
    "id": "7896aab7-6444-4b76-b161-b5d3cbccd174"
  },
  {
    "name": "몽크스부처",
    "address": "서울특별시 용산구 서울특별시 용산구 이태원로 228-1",
    "category": "일반음식점",
    "menu_type": "한식",
    "certification": "채식음식점",
    "tel": "02-790-1108",
    "lat": "37.5354565",
    "lng": "126.999230",
    "id": "cc38c285-4bb4-4646-b2a5-6a7c1d2bb94c"
  },
  {
    "name": "플랜트 (PLANT)",
    "address": "서울특별시 용산구 서울특별시 용산구 보광로 117 ",
    "category": "일반음식점",
    "menu_type": "한식",
    "certification": "채식음식점",
    "tel": "02-749-1981",
    "lat": "37.5331217",
    "lng": "126.99423",
    "id": "83ae2e7e-f69b-4e19-a330-f4305f2d4de0"
  },
  {
    "name": "레이지 파머스",
    "address": "서울특별시 용산구 서울특별시 용산구 회나무로35길 5, A동",
    "category": "일반음식점",
    "menu_type": "한식",
    "certification": "채식음식점",
    "tel": "0507-1419-6301",
    "lat": "37.5404130",
    "lng": "126.99340",
    "id": "cbdec6d5-d4f0-467f-ae9a-5d4b24a5bcb9"
  },
  {
    "name": "베제투스",
    "address": "서울특별시 용산구 서울특별시 용산구 신흥로 59",
    "category": "일반음식점",
    "menu_type": "한식",
    "certification": "채식음식점",
    "tel": "070-8824-5959",
    "lat": "37.543698",
    "lng": "126.98726",
    "id": "c7c1ad6c-d082-4f0c-853b-012b6b566c03"
  },
  {
    "name": "베지위켄드",
    "address": "서울특별시 용산구 서울특별시 용산구 한남대로 60, 1층 디101, 디102호",
    "category": "일반음식점",
    "menu_type": "한식",
    "certification": "채식음식점",
    "tel": "0507-1350-6553",
    "lat": "37.5344821",
    "lng": "127.007516",
    "id": "22488baf-0342-44c6-a32c-b6d57febb03d"
  },
  {
    "name": "리틀갱스터",
    "address": "서울특별시 용산구 서울특별시 용산구새창로12갈11-3 1층",
    "category": "일반음식점",
    "menu_type": "한식",
    "certification": "채식음식점",
    "tel": null,
    "lat": "37.5394959",
    "lng": "126.957227",
    "id": "1bde9150-2859-4d69-b856-ed8c7f5a64e1"
  },
  {
    "name": "로컬릿",
    "address": "서울특별시 성동구 서울특별시 성동구 한림말길 33, 2층",
    "category": "일반음식점",
    "menu_type": "한식",
    "certification": "채식음식점",
    "tel": "0507-1354-3399",
    "lat": "37.540915",
    "lng": "127.014742",
    "id": "7c4ba593-8e98-4454-884d-2d91f8020457"
  },
  {
    "name": "초록뜰식당",
    "address": "서울특별시 동대문구 서울 동대문구 망우로18길 36",
    "category": "일반음식점",
    "menu_type": "한식",
    "certification": "채식음식점",
    "tel": "02-2243-7733",
    "lat": "37.5885364",
    "lng": "127.062818",
    "id": "62919bf3-91e8-4f5d-bf86-9fdb41d169be"
  },
  {
    "name": "유기농 채식휴게음식점 마주이야기",
    "address": "서울특별시 강북구 서울특별시 강북구 인수봉로55길 10 2층",
    "category": "휴게음식점",
    "menu_type": "과자점",
    "certification": "채식음식점",
    "tel": null,
    "lat": "37.6368705",
    "lng": "127.012307",
    "id": "eda05223-eabe-45bf-806c-695b12e6ad25"
  },
  {
    "name": "베지스",
    "address": "서울특별시 서대문구 서울 서대문구 홍연길 87 1층(연희동)",
    "category": "일반음식점",
    "menu_type": "한식",
    "certification": "채식음식점",
    "tel": "0507-1343-9312",
    "lat": "37.5768384",
    "lng": "126.931211",
    "id": "9efb5f64-20ea-4482-bde2-a115aedf7c77"
  },
  {
    "name": "포포브레드",
    "address": "서울특별시 마포구 서울특별시 마포구 동교로18길 13, 세원빌딩 1층 ",
    "category": "휴게음식점",
    "menu_type": "과자점",
    "certification": "채식음식점",
    "tel": "0507-1338-2044",
    "lat": "37.5545705",
    "lng": "126.917104",
    "id": "679baa36-eb49-4536-87ab-3ff2f8550fc1"
  },
  {
    "name": "더브레드블루(신촌)",
    "address": "서울특별시 마포구 서울특별시 마포구 신촌로12다길 3 ",
    "category": "휴게음식점",
    "menu_type": "과자점",
    "certification": "채식음식점",
    "tel": "0507-1425-0723",
    "lat": "37.5551595",
    "lng": "126.932780",
    "id": "54dc2f7b-75a5-4b34-9a2e-1d9bec950251"
  },
  {
    "name": "비건다움 제과점",
    "address": "서울특별시 마포구 서울 마포구 성암로 28 Agate 상가 104호",
    "category": "휴게음식점",
    "menu_type": "과자점",
    "certification": "채식음식점",
    "tel": "0507-1432-9884",
    "lat": "37.5691546",
    "lng": "126.913251",
    "id": "79c19270-d079-44c5-8c51-f6414109170b"
  },
  {
    "name": "두두리두팡",
    "address": "서울특별시 마포구 서울 마포구 월드컵로23길 19 1층 두두리두팡",
    "category": "휴게음식점",
    "menu_type": "과자점",
    "certification": "채식음식점",
    "tel": "070-8810-2379",
    "lat": "37.5569067",
    "lng": "126.907919",
    "id": "5a5a57b3-5e09-42b3-a695-7cd68c2ee12e"
  },
  {
    "name": "줄리아스케이크룸",
    "address": "서울특별시 마포구 서울 마포구 광성로6길 30 1층",
    "category": "휴게음식점",
    "menu_type": "과자점",
    "certification": "채식음식점",
    "tel": "0507-1377-0941",
    "lat": "37.5485707",
    "lng": "126.938829",
    "id": "146b6292-7bb9-499e-aaee-4c147e81220a"
  },
  {
    "name": "써니보울",
    "address": "서울특별시 마포구 서울특별시 마포구 숭문16길 18, 1층",
    "category": "일반음식점",
    "menu_type": "한식",
    "certification": "채식음식점",
    "tel": "070-8744-4250",
    "lat": "37.5557463",
    "lng": "126.947467",
    "id": "2fbdff55-ead9-4d59-99b8-d242174058ac"
  },
  {
    "name": "베지 스튜디오",
    "address": "서울특별시 마포구 서울 마포구 백범로 152 202동 1층 13호",
    "category": "일반음식점",
    "menu_type": "한식",
    "certification": "채식음식점",
    "tel": "0507-1320-1976",
    "lat": "37.545487",
    "lng": "126.946616",
    "id": "2d1ecc13-d4b6-460e-8690-f6fd22f5f9fe"
  },
  {
    "name": "카멜스 키친",
    "address": "서울특별시 마포구 서울특별시 마포구 포은로 52-1, 2호",
    "category": "일반음식점",
    "menu_type": "한식",
    "certification": "채식음식점",
    "tel": "02-6326-3200",
    "lat": "37.5521886",
    "lng": "126.906894",
    "id": "2bbbe523-b5ff-41d1-bbf1-7f1456a230e3"
  },
  {
    "name": "셰발레리",
    "address": "서울특별시 마포구 서울특별시 마포구 포은로 52 ",
    "category": "일반음식점",
    "menu_type": "한식",
    "certification": "채식음식점",
    "tel": "02-6013-0269",
    "lat": "37.5520668",
    "lng": "126.906964",
    "id": "b27a8f48-e862-41e5-80e6-baba2314ac8c"
  },
  {
    "name": "대안부엌 풀",
    "address": "서울특별시 마포구 서울특별시 마포구 포은로 89, 2층",
    "category": "일반음식점",
    "menu_type": "한식",
    "certification": "채식음식점",
    "tel": "0507-1330-3780",
    "lat": "37.5550251",
    "lng": "126.905043",
    "id": "86f05c56-d0b1-419c-bced-020693e53327"
  },
  {
    "name": "점점점점점점",
    "address": "서울특별시 마포구 서울특별시 마포구 성암로15길 36, 1층",
    "category": "일반음식점",
    "menu_type": "한식",
    "certification": "채식음식점",
    "tel": "0507-1318-5971",
    "lat": "37.5772358",
    "lng": "126.896210",
    "id": "1b0e20a9-47c3-4bba-bbf8-4b3338050c4d"
  },
  {
    "name": "베이스 이즈 나이스",
    "address": "서울특별시 마포구 서울특별시 마포구 도화2길 20",
    "category": "일반음식점",
    "menu_type": "한식",
    "certification": "채식음식점",
    "tel": "0507-1306-6724",
    "lat": "37.5396362",
    "lng": "126.949096",
    "id": "0d98162e-deb7-498b-b423-6d6a44dcd2e2"
  },
  {
    "name": "슬런치 팩토리",
    "address": "서울특별시 마포구 서울특별시 마포구 성미산로 161-6",
    "category": "일반음식점",
    "menu_type": "한식",
    "certification": "채식음식점",
    "tel": "02-325-8843",
    "lat": "37.5650957",
    "lng": "126.924136",
    "id": "0d69601f-fd16-4f4f-b668-da5ea7285e52"
  },
  {
    "name": "슬금슬금",
    "address": "서울특별시 마포구 서울 마포구 월드컵북로 75 1층",
    "category": "일반음식점",
    "menu_type": "한식",
    "certification": "채식음식점",
    "tel": "0507-1361-5775",
    "lat": "37.5604549",
    "lng": "126.915823",
    "id": "40e2f9bb-6b53-4f26-89d4-5f63d6c4fb26"
  },
  {
    "name": "드렁큰비건",
    "address": "서울특별시 마포구 서울특별시 마포구 와우산로30길 13 ",
    "category": "일반음식점",
    "menu_type": "한식",
    "certification": "채식음식점",
    "tel": "070-7543-8101",
    "lat": "37.5541625",
    "lng": "126.929956",
    "id": "ed1f239c-4493-43e3-958a-aa7bad3409dd"
  },
  {
    "name": "슬금슬금",
    "address": "서울특별시 마포구 서울 마포구 월드컵북로 75 1층",
    "category": "일반음식점",
    "menu_type": "한식",
    "certification": "채식음식점",
    "tel": "0507-1361-5575",
    "lat": "37.5604549",
    "lng": "126.915823",
    "id": "79528f68-1dca-45b9-8247-0639bcecadec"
  },
  {
    "name": "공간녹음",
    "address": "서울특별시 강서구 서울특별시 강서구 공항대로 227 403호",
    "category": "일반음식점",
    "menu_type": "한식",
    "certification": "채식음식점",
    "tel": "0507-1327-6998",
    "lat": "37.559627",
    "lng": "126.832694",
    "id": "229add3a-2c4c-4d84-8fc4-a74fe7298b1b"
  },
  {
    "name": "아승지",
    "address": "서울특별시 영등포구 서울특별시 영등포구 신길로 176 ",
    "category": "일반음식점",
    "menu_type": "한식",
    "certification": "채식음식점",
    "tel": "0507-1400-7595",
    "lat": "37.5078459",
    "lng": "126.911203",
    "id": "67bd7e9f-e18b-4193-8f3b-0dd697fddbbf"
  },
  {
    "name": "휘게라이프",
    "address": "서울특별시 관악구 서울 관악구 남현길 37 2층(남현동)",
    "category": "휴게음식점",
    "menu_type": "과자점",
    "certification": "채식음식점",
    "tel": "0507-1350-6394",
    "lat": "37.4749657",
    "lng": "126.976925",
    "id": "09147fdb-6024-49a6-b0ff-3c8587d01b7c"
  },
  {
    "name": "비건마마",
    "address": "서울특별시 관악구 서울특별시 관악구 봉천로 457-1, 1층 ",
    "category": "휴게음식점",
    "menu_type": "과자점",
    "certification": "채식음식점",
    "tel": "0507-1496-2218",
    "lat": "37.4825741",
    "lng": "126.950958",
    "id": "ac64dec6-e790-4e38-835b-45c63c4971b6"
  },
  {
    "name": "더래빗",
    "address": "서울특별시 서초구 서울 서초구 방배천로4안길 38 1층",
    "category": "휴게음식점",
    "menu_type": "과자점",
    "certification": "채식음식점",
    "tel": "0507-1353-7847",
    "lat": "37.4796811",
    "lng": "126.983404",
    "id": "7d8a2aea-7415-4fc6-b534-cfe8579eba3b"
  },
  {
    "name": "휴게음식점 거북이",
    "address": "서울특별시 서초구 서울특별시 서초구 방배천로4안길 48 ",
    "category": "휴게음식점",
    "menu_type": "과자점",
    "certification": "채식음식점",
    "tel": "070-4015-5314",
    "lat": "37.4801895",
    "lng": "126.983416",
    "id": "a7bcc9f8-699e-44bf-94d3-f690347ea11c"
  },
  {
    "name": "플랫오",
    "address": "서울특별시 서초구 서울 서초구 양재천로 103-1 1층 (서울특별시 서초구 양재동 97-5 1층)",
    "category": "일반음식점",
    "menu_type": "한식",
    "certification": "채식음식점",
    "tel": "0507-1351-0299",
    "lat": "37.4765354",
    "lng": "127.040134",
    "id": "df90f917-4cfd-44ef-a98b-5bd81cd6c701"
  },
  {
    "name": "천년식향(밀레니얼 다이닝)",
    "address": "서울특별시 서초구 서울특별시 서초구 효령로 316-1 3층",
    "category": "일반음식점",
    "menu_type": "한식",
    "certification": "채식음식점",
    "tel": null,
    "lat": "37.4854203",
    "lng": "127.018966",
    "id": "922fbefb-baa0-4df7-8b6f-ad843a0da0b1"
  },
  {
    "name": "푸드 더즈 매터 (Food does Matter)",
    "address": "서울특별시 서초구 서울특별시 서초구 서래로1길 10 ",
    "category": "일반음식점",
    "menu_type": "한식",
    "certification": "채식음식점",
    "tel": "02-593-3322",
    "lat": "37.4962399",
    "lng": "126.997632",
    "id": "511349f9-a111-4322-ae02-562731dd1a5c"
  },
  {
    "name": "홀썸",
    "address": "서울특별시 서초구 서울특별시 서초구 양재천로19길 19, 1층 ",
    "category": "일반음식점",
    "menu_type": "한식",
    "certification": "채식음식점",
    "tel": "0507-1429-1177",
    "lat": "37.47629",
    "lng": "127.037915",
    "id": "ee755bb2-ec42-48f4-be3c-8b96568a5db5"
  },
  {
    "name": "남미플랜트랩",
    "address": "서울특별시 서초구 서울특별시 서초구 방배천로4안길55 2층",
    "category": "일반음식점",
    "menu_type": "한식",
    "certification": "채식음식점",
    "tel": null,
    "lat": "37.4806227",
    "lng": "126.983234",
    "id": "c9e79928-07bc-4425-b89f-86442e0bc40a"
  },
  {
    "name": "비건비거닝",
    "address": "서울특별시 강남구 서울 강남구 선릉로85길 6 호텔뉴브 1층 비건비거닝",
    "category": "휴게음식점",
    "menu_type": "과자점",
    "certification": "채식음식점",
    "tel": "02-740-5060",
    "lat": "37.5030264",
    "lng": "127.049108",
    "id": "e5b03491-fda1-4baf-b091-bddb418113f6"
  },
  {
    "name": "콜리플라워",
    "address": "서울특별시 강남구 서울 강남구 압구정로2길 45 플라워베이커리 내",
    "category": "휴게음식점",
    "menu_type": "과자점",
    "certification": "채식음식점",
    "tel": "02-515-1345",
    "lat": "37.5189217",
    "lng": "127.021113",
    "id": "cbc8dd2a-c6a1-4dd8-860e-69c0ac95ce5f"
  },
  {
    "name": "노르디",
    "address": "서울특별시 강남구 서울 강남구 도산대로37길 36 지상1층",
    "category": "휴게음식점",
    "menu_type": "과자점",
    "certification": "채식음식점",
    "tel": "0507-1420-3320",
    "lat": "37.5233988",
    "lng": "127.031486",
    "id": "5327036d-1b25-4cbd-95e3-8e1840dc45a1"
  },
  {
    "name": "러빙헛 휴게음식점",
    "address": "서울특별시 강남구 서울특별시 강남구 개포로22길 35 ",
    "category": "일반음식점",
    "menu_type": "한식",
    "certification": "채식음식점",
    "tel": "02-576-2158",
    "lat": "37.4768939",
    "lng": "127.049440",
    "id": "d0bbb68d-3439-4c44-8369-92afec114967"
  },
  {
    "name": "러빙헛 랜드",
    "address": "서울특별시 강남구 서울특별시 강남구 논현로16길 17",
    "category": "일반음식점",
    "menu_type": "한식",
    "certification": "채식음식점",
    "tel": "0507-1402-0512",
    "lat": "37.4767506",
    "lng": "127.047700",
    "id": "f158e481-3a6b-47ff-8753-84f237a48b1b"
  },
  {
    "name": "썬더버드 청담점",
    "address": "서울특별시 강남구 서울 강남구 압구정로60길 18",
    "category": "일반음식점",
    "menu_type": "한식",
    "certification": "채식음식점",
    "tel": "0507-1436-1377",
    "lat": "37.5261878",
    "lng": "127.041701",
    "id": "f8a41435-8a4f-4eaa-8bdf-22de7523ed43"
  },
  {
    "name": "베지그린",
    "address": "서울특별시 강남구 서울 강남구 개포로20길 24-10 광민빌딩 1층",
    "category": "일반음식점",
    "menu_type": "한식",
    "certification": "채식음식점",
    "tel": "0507-1403-6316",
    "lat": "37.4769745",
    "lng": "127.047358",
    "id": "9ee9fb7b-eafb-4c6c-84cd-eac447b5b250"
  },
  {
    "name": "플랜튜드",
    "address": "서울특별시 강남구 서울특별시 강남구 영동대로 513, 스타필드 지하1층 I-111호",
    "category": "일반음식점",
    "menu_type": "한식",
    "certification": "채식음식점",
    "tel": "02-551-3933",
    "lat": "37.5120183",
    "lng": "127.059036",
    "id": "e8026355-d750-41d8-aa1e-ada7c8ba345c"
  },
  {
    "name": "음 이터리&베이커리",
    "address": "서울특별시 강남구 서울특별시 강남구 논현로28길 47, 1층",
    "category": "일반음식점",
    "menu_type": "한식",
    "certification": "채식음식점",
    "tel": "0507-1402-2048",
    "lat": "37.4846756",
    "lng": "127.045474",
    "id": "02a85ec4-c2e5-4afe-ab0c-af7a7e8487ef"
  },
  {
    "name": "스타일비건",
    "address": "서울특별시 강남구 서울특별시 강남구 선릉로135길 6, 2층",
    "category": "일반음식점",
    "menu_type": "한식",
    "certification": "채식음식점",
    "tel": "1800-2361",
    "lat": "37.5187820",
    "lng": "127.040043",
    "id": "437dcd5b-44db-4dd7-bb0e-4fbf7c7ed9c4"
  },
  {
    "name": "레귬",
    "address": "서울특별시 강남구 서울특별시 강남구 강남대로 652, 지상 2층 207-2호",
    "category": "일반음식점",
    "menu_type": "한식",
    "certification": "채식음식점",
    "tel": "0507-1365-1567",
    "lat": "37.5195659",
    "lng": "127.01909",
    "id": "1afbbb5f-01eb-48fe-b9d3-8a5f770ef74f"
  },
  {
    "name": "마히나 비건 테이블",
    "address": "서울특별시 강남구 서울특별시 강남구 테헤란로4길 46 쌍용플래티넘밸류B1-139호",
    "category": "일반음식점",
    "menu_type": "한식",
    "certification": "채식음식점",
    "tel": "070-8880-4321",
    "lat": "37.4955534",
    "lng": "127.030090",
    "id": "87864ca1-a6ad-48c2-a052-f499e2df04b7"
  },
  {
    "name": "달리아 다이닝",
    "address": "서울특별시 강남구 서울 강남구 도산대로45길 14 2층 달리아 다이닝",
    "category": "일반음식점",
    "menu_type": "한식",
    "certification": "채식음식점",
    "tel": "070-4482-0102",
    "lat": "37.5232352",
    "lng": "127.035758",
    "id": "85f79b73-db48-414d-bb75-0d84160a84e5"
  },
  {
    "name": "핀치 브런치바",
    "address": "서울특별시 강남구 서울특별시 강남구 압구정로4길 19 ",
    "category": "일반음식점",
    "menu_type": "한식",
    "certification": "채식음식점",
    "tel": "0507-1390-0526",
    "lat": "37.5214919",
    "lng": "127.02058",
    "id": "3c6224fd-5a32-4d73-8c8d-fa0532b60b79"
  },
  {
    "name": "마히나 비건 테이블",
    "address": "서울특별시 강남구 서울특별시 강남구 논현로175길 75 2층 ",
    "category": "일반음식점",
    "menu_type": "한식",
    "certification": "채식음식점",
    "tel": "0507-1371-5331",
    "lat": "37.5236618",
    "lng": "127.023039",
    "id": "e1d5be70-4799-4ea5-bdb1-7fe8826f1b34"
  },
  {
    "name": "닥터비건",
    "address": "서울특별시 강남구 서울특별시 강남구 도산대로68길 25",
    "category": "일반음식점",
    "menu_type": "한식",
    "certification": "채식음식점",
    "tel": "0507-1413-2994",
    "lat": "37.5219086",
    "lng": "127.04461",
    "id": "7657fae9-ad96-439c-adf1-cdae095d9cb3"
  },
  {
    "name": "비건네이처",
    "address": "서울특별시 송파구 서울 송파구 송파대로 448-1 102, 103호",
    "category": "휴게음식점",
    "menu_type": "과자점",
    "certification": "채식음식점",
    "tel": "02-2138-0111",
    "lat": "37.5066958",
    "lng": "127.106287",
    "id": "3d535631-1c22-43ad-8a34-f63c7f0c1a80"
  },
  {
    "name": "오도브",
    "address": "서울특별시 송파구 서울 송파구 중대로27길 1 1층",
    "category": "휴게음식점",
    "menu_type": "과자점",
    "certification": "채식음식점",
    "tel": "0507-1427-3475",
    "lat": "37.5033885",
    "lng": "127.12846",
    "id": "453fec81-9d72-4d38-aa44-b88d0db936b4"
  },
  {
    "name": "루티드",
    "address": "서울특별시 송파구 서울특별시 송파구 오금로17길 7 1층",
    "category": "일반음식점",
    "menu_type": "한식",
    "certification": "채식음식점",
    "tel": "070-8844-1707",
    "lat": "37.5114745",
    "lng": "127.111440",
    "id": "876ec28f-ff91-4070-ba32-e22d0a84be75"
  },
  {
    "name": "포리스트 키친",
    "address": "서울특별시 송파구 서울특별시 송파구 올림픽로 300, 롯데월드몰 6층",
    "category": "일반음식점",
    "menu_type": "한식",
    "certification": "채식음식점",
    "tel": "02-3213-4626",
    "lat": "37.5137076",
    "lng": "127.104304",
    "id": "db6be0e5-514d-42ea-acde-ae752a93bd66"
  },
  {
    "name": "우부래도 배지찬",
    "address": "서울특별시 동작구 서울특별시 동작구 상도로37길 3 ",
    "category": "휴게음식점",
    "menu_type": "과자점",
    "certification": "채식음식점",
    "tel": "0507-1428-0599",
    "lat": "37.5031359",
    "lng": "126.94864",
    "id": "fa7c2bab-d478-4930-aad8-b213168393ec"
  },
  {
    "name": "전환마을부엌 밥풀꽃",
    "address": "서울특별시 은평구 서울특별시 은평구 연서로15길 8, 1층 ",
    "category": "일반음식점",
    "menu_type": "한식",
    "certification": "채식음식점",
    "tel": "02-387-1129",
    "lat": "37.610685",
    "lng": "126.916088",
    "id": "58df5cbf-ee0d-4c26-b8df-d3c1dedf6a93"
  }
]
