[
  {
    "id": "4407",
    "name": "백운식당",
    "category": "한식",
    "address": "경상남도 합천군 가야면 치인2길 27",
    "menu": "대장경정식,더덕구이,더덕구이정식,도토리묵,도토리비빔밥,도토리비빔밥세트,동동주,돼지고기수육,막걸리,맥주,백세주,부침(전),산채비빔밥,소고기덮밥,소주,음료수,채식나물밥상,촌두부,표고버섯볶음",
    "tel": "0559327393",
    "lat": 35.7927556,
    "lng": 128.085618
  },
  {
    "id": "15582",
    "name": "소반식당",
    "category": "한식",
    "address": "부산광역시 서구 대영로85번길 21",
    "menu": "1인 추가시,도토리탕수육(大),도토리탕수육(小),된장찌개,연잎밥,정식,콩나물찜(정식포함/大/3인),콩나물찜(정식포함/小/2인),콩치킨(大),콩치킨(小),표고강정(大),표고강정(小)",
    "tel": "0512441046",
    "lat": 35.1119495,
    "lng": 129.0199485
  },
  {
    "id": "22105",
    "name": "꽃, 밥에 피다",
    "category": "한식",
    "address": "서울특별시 종로구 인사동16길 3-6",
    "menu": "계절 생선구이,공기밥,꽃밥 계절 샐러드,꽃차,네니아 두부구이,눈개승마 나물밥,돼지목살구이,디저트(점심),매콤 제육볶음,맥적(된장 제육),맥적제육 비빔밥(된장양념 베이스),멍게 비빔밥,멍게비빔밥(점심),모듬전(저녁),무농약 쌀로 만든 쑥 오쟁이떡(1개),무농약 우리밀 마늘토스트(1개),무농약 우리밀 초코칩쿠키(1개),보자기 비빔밥(점심),비건코스 건강한 밥상 ,비건코스 완전 소중한 꽃밥,뿌리채소 냉채,세트메뉴1(점심),세트메뉴2(점심),세트메뉴3(점심),세트메뉴4(점심),실콩과 파프리카(1개/계절메뉴),온어락 천연소다(300ml/병/레몬아미),온어락 천연소다(300ml/병/오디리셔스),온어락 천연소다(300ml/병/오미자마마),우리밀왕교자 찐만두(4개),유기농 단호박 식혜,유기농 아이스크림(딸기/75ml),유기농 아이스크림(바닐라/75ml),유기농 아이스크림(초코/75ml),유기농 커피,유기농 한우 떡불고기 귀한 밥상,유기농 한우 떡불고기(200g),제육덮밥(점심),찬란한 고추잡채(대",
    "tel": "027320276",
    "lat": 37.5752758,
    "lng": 126.9840151
  },
  {
    "id": "33127",
    "name": "호텔신라제주호텔천지",
    "category": "한식",
    "address": "제주특별자치도 서귀포시 중문관광로72번길 75",
    "menu": "Chablis,Domaine William Fevre 2018(Bottle),Chablis,Domaine William Fevre 2018(Glass),Montgras Intriga, Alto-Maipo Valley 2016(Bottle),Montgras Intriga, Alto-Maipo Valley 2016(Glass),선운산 복분자,숨비코스,어린이 정식,오메기술,유채꿀 석쇠불고기,자연송이 맑은 탕,채식메뉴,한우 전복 신선로,화요소주",
    "tel": "0647355342",
    "lat": 33.248022,
    "lng": 126.4086786
  },
  {
    "id": "64371",
    "name": "얼스톤",
    "category": "양식",
    "address": "부산광역시 해운대구 중동2로26번길 3-6",
    "menu": "바질 페스토 통밀 치아바타샌드위치,바질페스토플레이트,부드러운 허무스 쑥 치아바타샌드위치,비건 치즈케이크,비욘드피자(L),비욘드피자(M),스무디 볼,애플민트 당근케이크,오늘의,쿵푸보이,퍼지 브라우니,포레스트버거&샐러드,허무스 샐러드볼,허브향가득 구운감자와 캐슈크림소스&샐러드",
    "tel": "0517469100",
    "lat": 35.1643413,
    "lng": 129.1636436
  },
  {
    "id": "96930",
    "name": "식탁의 목적",
    "category": "한식",
    "address": "서울특별시 종로구 대명길 34",
    "menu": "고구마커틀렛정식,김치볶음과 소시지정식,돼지고기김치전골,돼지목살구이정식,두부구이와 된장야채소스덮밥,두부구이와 버섯볶음덮밥,두부구이와 얼큰채소덮밥,매콤통오징어철판볶음,밥 한공기 추가,삼겹살편육정식,생야채비빔밥,생연어스테이크,생연어초밥,생연어회,생연어회덮밥,소고기구이정식,소고기숙주볶음덮밥,소고기전골,오늘의 집밥,채식약밥,철판소고기숙주볶음,철판제육김치볶음,치킨커틀렛정식",
    "tel": "027645696",
    "lat": 37.5832058,
    "lng": 126.9996779
  },
  {
    "id": "101150",
    "name": "태원",
    "category": "한식",
    "address": "대전광역시 서구 문정로 19",
    "menu": "게살유산슬,고추잡채꽃빵,관자튀김,군만두(8개),굴우동,굴짬뽕,기스면,깐소새우,깐소중새우,깐풍기,깐풍새우,깐풍육,깐풍중새우,꽃빵(8개),난젠완스,난젠완스밥,냉채,등심사천탕수육,등심탕수육,라조기,라조기밥,라조육,라조육밥,마라사천탕수육,마파두부,마파두부밥,매운짜장,매운짬뽕,버섯완자,버섯완자누룽지,볶음밥,사천가리비밥,삼선누룽지탕,삼선볶음밥,삼선우동,삼선짜장,삼선짬뽕,삼선짬뽕밥,삼선팔보채,새우볶음밥,새우완자,새우튀김,소고기깐풍육,소고기난젠완스,소고기라조육,소고기오향장육,소고기탕수육,송이밥,송이전복,송이짬뽕밥,식빵새우튀김,양장피,오무라이스밥,우동,울면,울짜장,유니짜장,유린기,유산슬,유산슬밥,유슬짜장,자연산송이볶음,자연산송이짬뽕,자연송이밥,잡채,잡채밥,잡탕밥,쟁반짜장(1인),쟁반짜장(大),전가복(中),전가복(小),중국식냉면,중국식만두(6개),짜장면,짜장밥,짬뽕,짬뽕냉면,짬뽕밥,채식고추잡채 꽃빵,채식마파두부,채식마파두부밥,채식매운짜장면,채식매운짬뽕,채식송이짬뽕,채식야끼짬뽕(中),채식야끼짬뽕(小),",
    "tel": "0424888838",
    "lat": 36.3461734,
    "lng": 127.3817105
  },
  {
    "id": "108776",
    "name": "오세계향",
    "category": "한식",
    "address": "서울특별시 종로구 인사동12길 14-5",
    "menu": "곤드레비빔밥,국산콩으로 직접 만든 순두부와 강된장비빔밥,그린샐러드(L),그린샐러드(M),그린샐러드(S),누룽지탕,들꺠국수,만두 추가(5개),매실탕수채(L),매실탕수채(M),매콤순두부찌개,물냉면(여름메뉴/L),물냉면(여름메뉴/M),버섯전골(L),버섯전골(M),불구이뚝빼기,비건짜장면((M),비건짜장면(L),비건짬뽕(L),비건짬뽕(M),순한순두부찌개,유린기(L),유린기(S),중화버섯탕면,중화볶음우동,콩국수(여름메뉴),표고버섯말이",
    "tel": "027357171",
    "lat": 37.57468,
    "lng": 126.9852667
  },
  {
    "id": "108806",
    "name": "한과채밥집",
    "category": "한식",
    "address": "서울특별시 종로구 인사동10길 13",
    "menu": "채식뷔페 1인",
    "tel": "027202802",
    "lat": 37.5743434,
    "lng": 126.9857216
  },
  {
    "id": "123952",
    "name": "한가람",
    "category": "기타",
    "address": "서울특별시 중구 남대문로5길 25",
    "menu": "100억프리바이오막걸리,LA 갈비구이 정식,LA갈비구이정식,LA갈비와 황태떡갈비구이,간장게장정식,갑오징어 숙회,고구마증류소주 려25,곤드레나물밥정식,김치말이뚝배기정식,꼬막무침,꼬막무침+들기름막국수,꼬막정식,단호박 낙지찜,도미뱃살과 황태떡갈비구이,도미뱃살구이,도미뱃살구이 정식,도미뱃살구이정식,돈육버섯불고기,돈육보쌈정식(홍어식해),막걸리,매콤삼겹살구이,매콤삼겹살구이정식,맥주,모듬버섯불고기전골,모듬버섯불고기정식,모듬보쌈 (훈제오리, 돈육),묵은지 김치찜 (삼치),묵은지김치찜(돈육),묵은지김치찜Set,버섯불고기전골,법고창신 국순당 자주,보리굴비정식,부대찌개,부대찌개Set,불고기버섯전골,불고기정식,비건BBQ상추쌈,사이다,소갈비구이,소주,솔잎효소골뱅이소면,숯불닭구이정식,약선 불고기 정식,약선 전복, 사태, 송이장,약선간장새우장(1인),약선꽃게간장게장정식,약선꽃게장정식,약선보리굴비정식,약선소갈비구이,약선연밥정식,약선전복사태장정식,육전,일품 약선 소갈비구이,일품 한가람 새우전,일품 한가람 육전,일",
    "tel": "023183088",
    "lat": 37.5625153,
    "lng": 126.9789284
  },
  {
    "id": "156712",
    "name": "별화",
    "category": "한식",
    "address": "전북특별자치도 익산시 마한로 80",
    "menu": "감자떡(5개),감자수제비+차,국화차,깍두기(1팩),냉대추탕,냉생강차,냉쌍화탕,녹차,대추빙수,대추탕,도토리묵(1팩),도토리묵밥+차,도토리묵비빔밥+차,도토리묵한접시,딸기라떼,라떼빙수,리코타 치즈와 바게트,마즙,묵사발+차,미숫가루(냉),별화쌍화탕 선물용(1병),별화탕,보이차,복분자즙,부지갱이나물(1팩),생강차,솔잎차(냉),솔잎차(온),수삼즙,식혜(냉),십전대보탕,쌍화탕,연잎밥+차,오미자스무디,오미자차(냉),오미자차(온),오징어 SET(안주),우유빙수,유자차(냉),유자차(온),자몽쥬스,자스민차,진토닉,카프리,커피(냉),커피(온),콩나물비빔밥+차,퓨전떡갈비,해독탕",
    "tel": "0638328938",
    "lat": 35.9643722,
    "lng": 126.9727494
  },
  {
    "id": "164609",
    "name": "페르시안궁전",
    "category": "기타",
    "address": "서울특별시 종로구 성균관로6길 9",
    "menu": "Arabic Coffee(Ghawa),Dogh(Iaban),Fried Potato,Hummus,Konjed Nan,Mast Khiyar(Rub Khiyar),Papadam,Plain Mast(Zabadi),Shiraz Salad,Turkish Coffee,감자튀김+카레,깨가 첨가된 난,꿀 난,누룽지와 자프란 요리,다이어트 콜라,다지지 않은 양고기와 감자요리,다진 양고기와 가지 요리,달-아데스 카레+라이스,달-아데스+라이스,달콩과 가지 요리,닭 반마리+라이스or난,닭고기 티카 케밥,닭고기 티카 케밥(뼈없는 닭고기 케밥),데히치킨 카레+라이스(뼈없는 닭),라이스 케이크,레모네이드,마늘이 첨가된 화덕 난,마살라 차이(밀크티),마스트,마약 아이스크림,매운 카레 치킨,매운 카레+감자튀김,무알콜 맥주,믹스케밥,바크티야리 케밥,바하루차,버터가 첨가된 화덕 난,베리아니 Large Size,베리야니(닭고기),베리야니(양고기),베지리 케밥,비건까스,사랑의 세트(2인분),사이다,새우 카레+라이스,샤미 ",
    "tel": "027636050",
    "lat": 37.5849114,
    "lng": 126.9975637
  },
  {
    "id": "166272",
    "name": "밥장인 돼지찌개",
    "category": "한식",
    "address": "서울특별시 마포구 양화로18안길 16",
    "menu": "3인불고기많이세트,3인찌개많이세트,4인불고기많이세트,4인찌개많이세트,간장불고기(소/400g),간장불고기(중/600g),계란밥,계란찜,계란후라이3개,공기밥,김가루주먹밥,날치알주먹밥,넓적당면,돼지/참치김치찌개변경,돼지김치찌개(1인기준),두부사리2조각,두부사리4조각,둘이불고기세트,둘이불스세트,둘이스팸세트,떠먹순두부돼지찌개(1인기준),떠먹순두부돼지찌개변경,라면사리,매콤/간장불고기덮밥,매콤/간장불고기추가(200g),매콤불고기(소/400g),매콤불고기(중/600g),맥주,모듬햄사리,비건감자찌개(1인기준),비건감자찌개변경,비먹돼지찌개(1인기준),소주,수제비사리,순두부사리1봉지,순두부사리반봉지,스팸2조각,스팸4조각,찌개에스팸사리1조각,찌개에스팸사리2조각,차돌김치/매운/된장찌개변경,차돌김치찌개(1인기준),차돌순두부된장찌개(1인기준),차돌순두부매운찌개(1인기준),참치김치찌개(1인기준),쿨피스,탄산음료,혼자계란찜세트,혼자스팸세트,혼자실컷불스세트",
    "tel": "0260521833",
    "lat": 37.5567218,
    "lng": 126.9254795
  },
  {
    "id": "166625",
    "name": "봉래헌",
    "category": "한식",
    "address": "서울특별시 강서구 방화대로 94",
    "menu": "LACERTA Blanc de noir(750ml),LACERTA Merlot(750ml),갈비구이(200g),갈비구이와 돌솥비빔밥(평일/점심),건오절,공깃밥,금강,김치,낙지볶음(L),낙지볶음(S),된장조치,막걸리,모듬 건과류,모듬 숙회,모듬전(L),모듬전(S),문배술(375ml),복분자음(375ml),봉래,사이다,생수,세종대왕 어주(500ml),솔송주(375ml),수라,수제맥주(500ml),스텔라 아르투아(320ml),오미베리티,오색 진구절,유기농 과일주스,육회(180g),잣소스를 곁들인 대하(1마리),전복 솥밥(평일/점심),전복 해물탕(평일/점심),전복구이,전복죽,점심상차림(평일/점심),제로콜라,제육보쌈(L),제육보쌈(S),제주 위트 에일(330ml),진연,차,채식,커피,콜라,클라우드(330ml),토닉워터,페리에,풍악,한산소곡주(360ml),해물잡채(L),해물잡채(S),화요(375ml)",
    "tel": "0226609020",
    "lat": 37.5478957,
    "lng": 126.8195071
  },
  {
    "id": "166913",
    "name": "운산",
    "category": "한식",
    "address": "서울특별시 영등포구 여의공원로 101",
    "menu": "개성식보쌈김치,개성식제육보쌈,계절별모듬전,구절판,궁중갈비찜,달정식,떡갈비구이,매운낙지볶음,매콤한양념제육요리,민물장어구이,산정식,새우완자조개탕,생야채들깨소스샐러드,용정식,운정식,원앙정식,육회,전복요리,채식정식,턍평채,해정식,해정식_떡갈비(1인),해정식_불고기(1인),해정식_제육보쌈(1인),행복정식,화로불고기(200g),흰살생선요리",
    "tel": "027806333",
    "lat": 37.529272,
    "lng": 126.9248927
  },
  {
    "id": "166978",
    "name": "차이나프로",
    "category": "중식",
    "address": "서울특별시 영등포구 국회대로74길 20",
    "menu": "A코스,B코스,C코스,D코스,R코스,S코스,경주(500ml),고추·굴짬뽕,고추잡채(대/4~5인분),고추잡채(소/2~3인분),공부가주(500ml),궁보새우식사,금문고량주(대/750ml),금문고량주(소/300ml),깐쇼새우(대/4~5인분),깐쇼새우(소/2~3인분),깐풍기(대/4~5인분),깐풍기(소/2~3인분),깐풍새우(대/4~5인분),깐풍새우(소/2~3인분),깐풍육(대/4~5인분),깐풍육(소/2~3인분),동파육(대/4~5인분),동파육(소/2~3인분),라조기(대/4~5인분),라조기(소/2~3인분),라조육(대/4~5인분),라조육(소/2~3인분),류산슬(대/4~5인분),류산슬(소/2~3인분),류산슬식사,마오타이(500ml),마파두부식사,마파초면(저녁메뉴),맥주(500ml),모리화차,버섯·굴탕면,불도장,불도장정식,블랙빈소고기,비풍당새우(대/4~5인분/저녁메뉴),비풍당새우(소/2~3인분/저녁메뉴),사이다,사천탕수육(대/4~5인분),사천탕수육(소/2~3인분),삼선만두국,삼선샥스핀(대/4~5인분),",
    "tel": "027830150",
    "lat": 37.5296058,
    "lng": 126.921553
  },
  {
    "id": "171881",
    "name": "알랭",
    "category": "기타",
    "address": "광주광역시 동구 동명로20번길 17-6",
    "menu": "디저트 추가,소라 에스카르고 추가,알랭코스,어니언 스프 추가,채식 코스,클래식코스",
    "tel": "0622282345",
    "lat": 35.1507488,
    "lng": 126.9255986
  },
  {
    "id": "178224",
    "name": "토목수",
    "category": "한식",
    "address": "전라북도 전주시 덕진구 구총목로 31",
    "menu": "동지팥죽,만두,바지락,붉은수제비,소바,소바,콩국수_면사리(1인분),수제비,옛날칼국수(1인분),채식보리비빔밥,콩국수,팥칼국수,흑임자칼국수(2인분이상)",
    "tel": "0632415060",
    "lat": 35.828518,
    "lng": 127.1634243
  },
  {
    "id": "178528",
    "name": "남한산성 하루채",
    "category": "한식",
    "address": "전북특별자치도 익산시 무왕로7길 34",
    "menu": "채식두부정식",
    "tel": "0638559102",
    "lat": 35.9612062,
    "lng": 126.9702572
  },
  {
    "id": "187520",
    "name": "강강수월래",
    "category": "한식",
    "address": "서울특별시 강서구 양천로30길 62",
    "menu": "겨울동치미국수,계란말이,계란탕,고기파전,골뱅이 소면,골뱅이소면,골뱅이쫄면,공주알밤,과메기(11월~초봄),과일소주,낙지볶음소면,낚지볶음,날치알계란말이,날치알계란찜,날치알밥,날치알쌈,날치알쌈(채식메뉴),대나무통술,두부김치,뚝배기우동,마른안주(선택메뉴),매화수,맥반석오징어,명품해물라면,모듬포,문배주,문어숙회,백세주,번데기얼큰탕,병맥주(카스),병맥주(테라),보해복분자,부대찌개+라면,사이다,산사춘,생맥주,서울장수 막걸리,소라숙회,수제통살돈까스,안동소주,알탕,야채오징어튀김,어린이돈까스,여름열무국수,오메기주(제주특산주),오징어소면,오징어숙회,우리밀해물수제비,육전,육포와 대구포,지평 ,진로이즈백,진짜감자전,차돌김치찌개,차돌버섯전골,참소라소면,참소라숙회,참이슬,처음처럼,청하,콜라,콩나물라면,크림맥주,클라우드,통영돌문어숙회,피자치즈계란말이,한라산소주,해물고추전,해물국수,해물김치전,해물모둠떡볶이,해물순두부,해물오뎅탕,해물파전,홍초막걸리,홍초소주,황도,황태차돌국밥",
    "tel": "0226661416",
    "lat": 37.5704124,
    "lng": 126.8225956
  },
  {
    "id": "192499",
    "name": "대오회관",
    "category": "한식",
    "address": "광주광역시 동구 구성로 148",
    "menu": "동지팥죽,맥주,보리밥,불고기,삼겹살,소주,야채식뷔페,음료수,칼국수,팥칼국수",
    "tel": "0622322750",
    "lat": 35.149871,
    "lng": 126.910593
  },
  {
    "id": "287400",
    "name": "워터스트리트",
    "category": "양식",
    "address": "서울특별시 용산구 회나무로13가길 3-9",
    "menu": "계절과일주스,드립커피,딸기만 넣은 우유,라임이탈리안소다,레몬에이드,핫레몬차,로얄 밀크티,바닐라라떼,아이스스윗시나몬카페폼,아이스크림+카카오소스,아포가토,애플블렌딩,얼그레이,에스프레소,에스프레소 온탑,오늘의 물길커피,오늘의 물길커피 점보,오트카피라떼-비건라떼,우유,유기농말차라떼,잉글리쉬블랙퍼스트,조리퐁 프라페,카모마일,카페라떼,카페모카,카페오레,코코아메리카노,토디아이스-콜드브루,토디아이스라떼,토디커피프라페,티에이드,페퍼민트,플랫 화이트,핫라임차,핫초코,아이스초코,핫카푸치노",
    "tel": "027200789",
    "lat": 37.5410832,
    "lng": 126.9898859
  },
  {
    "id": "293376",
    "name": "다하누",
    "category": "한식",
    "address": "인천광역시 연수구 청량로 102",
    "menu": "강화섬쌀 공깃밥,고소한차돌박이(1인/150g),누룽지,눈꽃등심(1인/130g),다하누점심특선,돌솥비빔밥(채식),등심한판(1인/130g),멸치육수 잔치국수,명품한우구이,모듬한판(1인/130g),스페셜한우프리(6인~10인),시래기 가마솥밥,웰빙안심(1인/130g),육회비빔밥,직접담근 국산콩 된장찌개,평약비빔냉면,평양불냉면,한우 된장죽(2인용),한우 뚝배기 불고기,한우 한판(1kg),한우生갈비(1인/150g),한우갈비살구이,한우갈비탕,한우곰탕,한우된장찌개,한우모듬구이,한우생고기(150g),한우생고기(200g),한우생불고기,한우생생육회(150g),한우선물세트,후식 평앵냉면(비빔),후식 평양냉면(물)",
    "tel": "0328589209",
    "lat": 37.4171598,
    "lng": 126.6561286
  },
  {
    "id": "301072",
    "name": "러빙헛",
    "category": "기타",
    "address": "전북특별자치도 전주시 완산구 감나무로 61-13",
    "menu": "Vegan Buffet(중학생 이상),Vegan Buffet(초등학생),도시락포장",
    "tel": "0632248929",
    "lat": 35.83176,
    "lng": 127.1184149
  },
  {
    "id": "301365",
    "name": "모산방",
    "category": "한식",
    "address": "전북특별자치도 군산시 부원로 97-9",
    "menu": "가족상(4인기준 1상),등갈비정식(2인이상/1인),불고기정식(2인이상/1인),샐러드정식(2인이상/1인),알찬채식(2인이상/1인),잔치상(4인기준 1상),축하상(4인기준 1상)",
    "tel": "0634634411",
    "lat": 35.9629514,
    "lng": 126.6816886
  },
  {
    "id": "314674",
    "name": "에코토피아",
    "category": "한식",
    "address": "부산광역시 수영구 수영로408번길 28",
    "menu": "계절음료,녹차라떼,두부 스테이크,레몬,레몬생강,매실차,미숫가루,밀크티,브로콜리 버섯 덮밥,사계절 샐러드,아메리카노,아이스초코,아이스크림,아포카토,어린잎 두부 비빔밥,에코 카레,오늘의 쿠키,오미자차,자몽,채소 그라탕,채식 감자라면,카라멜마끼아또,카레,카페라떼,카페모카,카푸치노,토마토 스파게티(2인분 이상 주문 가능),플랫화이트,핫초코",
    "tel": "0516282802",
    "lat": 35.1416567,
    "lng": 129.1095581
  },
  {
    "id": "330903",
    "name": "뜰안채채식뷔페",
    "category": "한식",
    "address": "경기도 용인시 기흥구 용구대로2335번길 25",
    "menu": "5~7세,보리빵(500g),울김치(1450g),잡채(550g),중학생~성인,초등학생,현미밥(550g),호박죽(흑임자/600g)",
    "tel": "0312815879",
    "lat": 37.2967316,
    "lng": 127.1076734
  },
  {
    "id": "332128",
    "name": "빵촌",
    "category": "베이커리",
    "address": "세종특별자치시 전의면 운주산로 1188-2",
    "menu": "녹차카스테라,누네띠네,단과자빵,단팥빵,단호박카스테라,당근카스테라,대판카스테라,두부스틱,딸기잼빵,딸기카스테라,딸기쿠키,땅꽁쿠키,땅콩크림빵,롤카스테라,롤케이크,마늘빵,마늘스틱,마늘카스테라,마블카스테라,맘모스빵,모닝빵,모카번,모카카스테라,모카쿠키,바게트,바게트러스크,바나나카스테라,바닐라머핀,밤만주,밤빵,백설기카스테라,버터스틱,버터식빵,베이비마드리드,베이비슈,붓세,블루베리맘모스빵,블루베리파운드케,블루베리파이,비스켓식빵,빵류,빵류(153),빵류(188),삼색카스테라,샌드위치,샌드위치빵,생도넛,생크림빵,생크림카스테라,셀브루,소보루빵,소시지빵,쉬폰카스테라,슈크림빵,시금치카스테라,시몬카스테라,시트카스테라,식빵러스크,식빵피자빵,아몬드 머핀,아몬드전병,아몬드쿠키,아몬드파운드케잌,야채롤 카스텔라,야채빵,야채식빵,약과빵,약빵,얼루기카스텔라,열대과일빵,오렌지 마드리드,옥수수못난이,옥수수밤카스테라,옥수수스틱,옥수수식빵,완두 갈비빵,완두갈비빵,완두빵,완두앙금빵,우유식빵,인형쿠키,잡곡식빵,중국호떡,찰빵,찹쌀도넛",
    "tel": "0448680044",
    "lat": 36.6794747,
    "lng": 127.2052286
  },
  {
    "id": "335567",
    "name": "아이엠어버거",
    "category": "양식",
    "address": "서울특별시 마포구 와우산로30길 13",
    "menu": "계란,고구마 프라이 & 샤워크림,골든 파인애플 버거(패티 140g),골든 파인애플 버거(패티 200g),더블 아메리칸 치즈버거(패티 140g),더블 아메리칸 치즈버거(패티 200g),루꼴라 모짜렐라 치즈 버거(패티 200g),맥키코 칠리버거(패티 140g),맥키코 칠리버거(패티 200g),머쉬룸 치즈버거(패티 140g),머쉬룸 치즈버거(패티 200g),바닐라,베이컨,비건 패티로 변경,빅웨이브,산펠레그리노 리모나타(레몬),스파이시 아보카도 버거(패티 200g),스파이시 치킨버거(패티 200g),스프라이트,아메리칸 치즈,아이엠 어 버거(패티 140g),아이엠 어 버거(패티 200g),야채,어니언 쉬림프 버거(패티 200g),어니언링 & 타르타르소스,오레오,인디카,진저 에일,체다치즈 버거(패티 140g),체다치즈 버거(패티 200g),치즈 프라이,칠리 치즈 프라이,케이준 프렌치 프라이,코카콜라,코카콜라제로,콘 & 코우슬로,패티,프렌치 프라이,허그미,헤이 가이즈 버거(패티 200g),환타오",
    "tel": "023388507",
    "lat": 37.5541552,
    "lng": 126.9299687
  },
  {
    "id": "350442",
    "name": "달래촌",
    "category": "한식",
    "address": "강원특별자치도 양양군 현남면 화상천로 634",
    "menu": "냉메밀국수,녹차 아이스크림 와플,달래나물밥,달래바베큐(中),달래바베큐(大),달래보약버섯밥상,달래송이밥상,달래연어포케,달래촌해독나물밥상,닭가슴살 샐러드,닭가슴살포케,불고기포케,비건샐러드,산채를 담은 산불고기,송이구이요리(계절),송이밥상(계절),약산채밥상,약산채버섯밥상,연어샐러드,제철산나물포케,초코 아이스크림 와플,플레인 아이스크림 와플",
    "tel": "0336732201",
    "lat": 37.9244226,
    "lng": 128.7284354
  },
  {
    "id": "356492",
    "name": "델리인도레스토랑",
    "category": "기타",
    "address": "경상남도 거제시 장평로4길 35",
    "menu": "1인(one) person,NON VEGETARIAN,small mango lassi,VEGETARIAN 채식주의 메뉴,감자튀김,반반치킨과 감자튀김,소세지,양념치킨과 감자튀김,오늘의 스프,작은잔 요거트 망고라씨,채식주의 세트,큰새우 두마리 추가,탈리1,탈리2,탈리3,탈리4,프라이드 치킨과 감자튀김",
    "tel": "0556353622",
    "lat": 34.8944304,
    "lng": 128.6142799
  },
  {
    "id": "361030",
    "name": "뉴문",
    "category": "중식",
    "address": "서울특별시 종로구 경희궁2길 6",
    "menu": "XO소스 대게살 볶음밥,경장육사,계란 연두부 요리,계란 연두부밥,공부가주(250ml/39%),공부가주(500ml/39%),광동,군만두(8pcs),굴짬뽕(겨울 특선),궁보기정,금문고량주(300ml/58%),금문고량주(750ml/58%),금사오룡해삼,기스면,깐풍기,깐풍소스 관자볶음,깐풍소스 한입새우,깐풍육,꽃빵(5pcs),꿔바로우,뉴 문,뉴문 특냉채(1人),능이버섯 만두(8pcs),능이버섯 짬뽕,대게살 스프(1人),대만산 죽엽청주(500ml/43%),대하튀김(깐풍),대하튀김(깐풍/1人),대하튀김(마요소스),대하튀김(마요소스/1人),대하튀김(칠리),대하튀김(칠리/1人),라조기,라조육,레몬 탕수육,마라관자,마라우육,마라치킨 덮밥,마요네즈 한입새우,마파두부,마파두부 덮밥,멘보샤(12p),멘보샤(8p),물만두,북경,사이다,사천 탕면,사천식 탕수육,사천식 해물볶음면(쟁반짜장/2人),사천식 해삼요리,산라 스프,삼선 백짬뽕,삼선 해물 울면,삼선 해물 자장면,삼선 해물 짬뽕,삼선해물 덮밥,새우 볶음밥",
    "tel": "027397575",
    "lat": 37.5726432,
    "lng": 126.9710099
  },
  {
    "id": "394376",
    "name": "슬런치 팩토리",
    "category": "양식",
    "address": "서울특별시 마포구 성미산로 161-6",
    "menu": "가지 시금치 파스타,구운야채와 빈 앤 넛 샐러드,그린 빈 토마토 리조또,그린 시금치 뇨끼,꿀한라봉차(HOT),꿀한라봉차(ICED),녹차 케이크,다크초코라떼(HOT),다크초코라떼(ICED),단호박크림수프&호밀빵,도피오(HOT),도피오(ICED),레네카 오가닉 세닌 블랑(1Bottle),레드 와인 글라스(1Glass),레몬티(HOT),레몬티(ICED),루꼴라 버섯 고르곤졸라 피자,루꼴라 생토맡토 펜네,마르게리따 피자,마리아주 끌레르 두유 밀크티(HOT),마리아주 끌레르 두유 밀크티(ICED),메디치 에르메테 페르멘토(1Bottle),명란 투움바 파스타,모로칸샐러드&후무스&피타,미오네토 프로세코 브뤼(1Bottle),바닐라 라떼(HOT),바닐라 라떼(ICED),바질 페스토 파스타 샐러드,뱅쇼,버섯 두유크림 리조또,버섯 들깨 덮밥,버섯 쌀국수 비빔면,비건치즈&애플피자 플래터,산미구엘,산타알리사 그랑리제르바 까베르네 쇼비뇽(1Bottle),생과일 에이드,생과일주스,생그리아,세뇨리오 드 이니에",
    "tel": "023258843",
    "lat": 37.5651019,
    "lng": 126.9241389
  },
  {
    "id": "402795",
    "name": "해뜨는집",
    "category": "한식",
    "address": "광주광역시 남구 대남대로223번길 62-2",
    "menu": "동지죽,들깨칼국수,버섯탕수육(中),버섯탕수육(大),버섯탕수육(小),채식군만두(8개)`,채식짬뽕,채식짬뽕밥,콩불고기 덮밥(2인이상가능),팥죽",
    "tel": "0626543450",
    "lat": 35.1304638,
    "lng": 126.8960452
  },
  {
    "id": "454383",
    "name": "산들",
    "category": "기타",
    "address": "충청남도 천안시 동남구 각원사길 150",
    "menu": "채식 뷔페(성인),채식 뷔페(유아),채식 뷔페(초등학생)",
    "tel": "0415585500",
    "lat": 36.8314203,
    "lng": 127.1870353
  },
  {
    "id": "457822",
    "name": "훅트",
    "category": "한식",
    "address": "서울특별시 중구 삼일대로12길 18",
    "menu": "FRTea 프루티,HOOKED 스페셜(L),HOOKED 스페셜(M),XL사이즈 업,갈릭 쉬림프 포케(L),갈릭 쉬림프 포케(M),건강너츠,검은깨 두부 포케(비건/L),검은깨 두부 포케(비건/M),검은깨 드레싱,낫또,메인 추가(두부),메인 추가(버섯),메인 추가(새우),메인 추가(연어),메인 추가(참치),버니니,버섯가지포케(비건/L),버섯가지포케(비건/M),빅토리아 탄산수,산펠레그리노,스파이시마요,스파이시마요연어포케(L),스파이시마요연어포케(M),아보카도,오리지널하와이언포케(L),오리지널하와이언포케(M),와사비 마요 참치 포케(L),와사비 마요 참치 포케(M),와사비마요,유자 폰즈 연어 포케(L),유자 폰즈 연어 포케(M),코나 롱보드,코나 빅웨이브,퀴노아,크랩샐러드,피코데가요,하우스비건소스,홀스레디쉬 드레싱",
    "tel": "07077570976",
    "lat": 37.5666254,
    "lng": 126.9887707
  },
  {
    "id": "457994",
    "name": "봄베그릴",
    "category": "기타",
    "address": "서울특별시 용산구 우사단로10길 11",
    "menu": "감자 브로콜리 커리 런치세트,렌틸콩 커리 런치세트,소고기 커리 런치세트,양고기 커리 런치세트,채식주의 커리 런치세트,치킨 커리 런치세트(11:00~14:00),팔라펠 커리 런치세트,팔락 파니르(시금치 치즈 커리) 런치세트",
    "tel": "027927155",
    "lat": 37.5332006,
    "lng": 126.9962327
  },
  {
    "id": "464264",
    "name": "더플레이스",
    "category": "양식",
    "address": "서울특별시 강남구 영동대로 513",
    "menu": "BEST SET,DELIZIOSO Set,ITALIAN STEAK Set,SET A(평일/~4PM),SET B(평일/~4PM),SET C(평일/~4PM),SIGNATURE SET,가든 관자 파스타,고르곤졸라 피자,고르곤졸라&프레시 마르게리따,까르보나라 페투치니,디저트 세트,딸리아따 디 만조,루꼴라 부라타 치즈 피자,리코타 프루타 샐러드,립아이 스테이크(460g),마레 파스타,맥주,블랙 모짜볼,블랙앵거스 립아이 스테이크,비건 미트 샐러드,뽈리뽀 알리오 올리오,살모네 샐러드,쉬림프 로제 링귀네,스모키 돔 스테이크,스모키 돔 채끝 스테이크,스테이크 샐러드,시즈널 스프,아메리카노,양념감자 프라이즈,잠봉 뵈르 피자,잠봉 시저 샐러드,치즈칩 아마트리치아나,치킨 앤 칩스,크랩 로제 리조또,크림 마레파스타,크림 페스카토레 리조또,토마호크 스테이크 SET,트러플 풍기 피자,트러플 프라이즈,트러플&부라타 치즈 스테이크(안심/150G),트러플&부라타 치즈 스테이크(채끝등심/210G),페스카토레 리조또,",
    "tel": "0260021150",
    "lat": 37.5118239,
    "lng": 127.059159
  },
  {
    "id": "466961",
    "name": "도현당",
    "category": "베이커리",
    "address": "부산광역시 해운대구 해운대해변로 257",
    "menu": "유기농 3종 견과 쑥영양현미빵(450g),유기농 3종 모듬 현미선물세트 A,유기농 3종모듬현미선물세트 B,유기농 보리새싹발아현미빵(400g),유기농 보리새싹을 담은 100%보리빵(400g),유기농 수퍼곡물 햄프씨드현미빵(400g),유기농들깨영양현미빵(400g),유기농현미통밀식빵(550g)",
    "tel": "0517011292",
    "lat": 35.1596847,
    "lng": 129.159515
  },
  {
    "id": "467740",
    "name": "베지나랑",
    "category": "한식",
    "address": "부산광역시 수영구 광안해변로370번길 9-32",
    "menu": "꽃빵&고추잡채,나랑샐러드,두부자몽샐러드,매실찹쌀탕수,바삭느타리튀김,버섯누렁지탕,버섯샐러드,스페샬볶음쌀국수,아보카도롤,연차림(후식포함),채이장,콩고기버섯덮밥,콩까스,콩치킨",
    "tel": "07041775555",
    "lat": 35.1567573,
    "lng": 129.1342605
  },
  {
    "id": "476658",
    "name": "레니엡",
    "category": "양식",
    "address": "경기도 성남시 분당구 정자일로 121",
    "menu": "LPA인디카,감자튀김,계피차(무카페인),고수,과카몰리,과카몰리엔칩,구스아일랜드312어반위트,그레이비,그릴부리또,껌숭(돼지고기덮밥),나쵸엔치즈,나쵸치즈,나쵸칩,뉴캐슬,닥터페퍼,달걀후라이,당큰컵케익,돼지고기반미,라임콜슬로,랜치치킨샐러드,레니엡나쵸,로스비프포보이,로스비프플레이트,로스치킨플레이트,루비포터,루이보스홍차,마이셀,매쉬드포테이토,맥스보울,맥엔치즈,맥엔치즈바이트,모자익,미니검보,미트볼스파게티,미트볼포보이,바베큐포보이,베녜,베트남볶음밥,베트남아이스커피,브라우니알라모드,블루베리녹차,비건껌다우후,비건멕스보울,비건바베큐포보이,비건반미,비건부리또,비건오일파스타,비건칠리콘소하,비건크런치랩,비건피칸초코쿠키,비프스튜,비프치미창가,사무엘아담스,사워크림,새우스캠피파스타,생레몬에이드,샷,석류우롱차,수제랜치드레싱,수제바베큐소스,수제브라우니,수제빵(대),수제빵(소),수제산딸기쿨리,수제카라멜소스,수제타코소스,스프라이트,아놀드파마,아이스커피,아이스티,얼그레이,에딩거둔켈,웰치스,잉글리쉬블랙퍼스트,잠발라야,쟈스민",
    "tel": "07042145791",
    "lat": 37.3613377,
    "lng": 127.1055431
  },
  {
    "id": "495506",
    "name": "땡스얼랏",
    "category": "카페",
    "address": "경기도 수원시 영통구 센트럴파크로127번길 106",
    "menu": "뉴올리언스 라떼,라떼,라떼(ICE),말차 라떼,말차 라떼(ICE),모찌 와플,모찌 와플(1인),모찌 와플(SET),모카,모카(ICE),뱅쇼,뱅쇼(ICE),비건 라떼,비건 라떼(ICE),생강차,생강차(ICE),소금커피,아메리카노,아메리카노(ICE),아이스크림 와플,아이스크림 와플(SET),얼그레이,얼그레이(ICE),에스프레소,에스프레소(ICE),오미자차,오미자차(ICE),자몽&오렌지 쥬스,자몽&오렌지 쥬스(ICE),자몽티,자몽티(ICE),질소 커피,쵸코 라떼,쵸코 라떼(ICE),캐모마일 메들리,캐모마일 메들리(ICE),콜드 브류,타히티 바닐라 라떼,타히티 바닐라 라떼(ICE),푸어 오버,푸어 오버(ICE),프라나 차이 밀크티,프라나 차이 밀크티(ICE),흑임자 마끼아또,흑임자 마끼아또(ICE)",
    "tel": "0312123054",
    "lat": 37.2935902,
    "lng": 127.0530532
  },
  {
    "id": "495507",
    "name": "땡스얼랏",
    "category": "카페",
    "address": "경기도 수원시 영통구 센트럴파크로127번길 106",
    "menu": "뉴올리언스 라떼,라떼,라떼(ICE),말차 라떼,말차 라떼(ICE),모찌 와플,모찌 와플(1인),모찌 와플(SET),모카,모카(ICE),뱅쇼,뱅쇼(ICE),비건 라떼,비건 라떼(ICE),생강차,생강차(ICE),소금커피,아메리카노,아메리카노(ICE),아이스크림 와플,아이스크림 와플(SET),얼그레이,얼그레이(ICE),에스프레소,에스프레소(ICE),오미자차,오미자차(ICE),자몽&오렌지 쥬스,자몽&오렌지 쥬스(ICE),자몽티,자몽티(ICE),질소 커피,쵸코 라떼,쵸코 라떼(ICE),캐모마일 메들리,캐모마일 메들리(ICE),콜드 브류,타히티 바닐라 라떼,타히티 바닐라 라떼(ICE),푸어 오버,푸어 오버(ICE),프라나 차이 밀크티,프라나 차이 밀크티(ICE),흑임자 마끼아또,흑임자 마끼아또(ICE)",
    "tel": "0312123054",
    "lat": 37.2935902,
    "lng": 127.0530532
  },
  {
    "id": "499246",
    "name": "무조리실",
    "category": "일식",
    "address": "제주특별자치도 제주시 관덕로6길 14",
    "menu": "감귤쥬스(감귤100%),감자 고로케(1개),감자고로케(1개),공기밥,구운채소카레,등심까스,멘치까스,병맥주(카스/330ml),병맥주(테라/330ml),비빔까스(등심),비빔까스(생선),사과쥬스,사과쥬스(식사와 함께 주문시),사이다,생선까스,어린이메뉴(돈까스),어린이메뉴(생선까스),우무가사리 콩국물,제주서리태콩국수(메밀면/여름한정),제주서리태콩국수(우무가사리/여름한정),짬뽕까스(면),짬뽕까스(밥),채식커리,카레,카레까스(등심),커피(hot),커피(ice),콜라,콩물+우무가사리(여름한정),하이볼",
    "tel": "0649041999",
    "lat": 33.5118993,
    "lng": 126.5218309
  },
  {
    "id": "504333",
    "name": "이토스",
    "category": "기타",
    "address": "대구광역시 중구 동성로3길 12",
    "menu": "그리스 피자,메세로니 칼조네,바베큐피자,베이컨 치즈버거 피자,비건 칼조네,스낵 바스켓,스팅키 치즈 피자,올리브 오일 치즈 피자,이토스 메세로니 피자,이토스 콤비네이션 피자,이토스 페퍼로니피자,이토스 하와이언 피자,주류,칩스 앤 딥,케이준 후렌치 프라이,콤보칼조네,토마토 소스 치즈 피자,페스토 치즈 피자,하와이언 칼조네,햄 치즈 칼조네",
    "tel": "0532119385",
    "lat": 35.8659382,
    "lng": 128.5974394
  },
  {
    "id": "509026",
    "name": "그레이가든",
    "category": "양식",
    "address": "경기도 남양주시 두물로39번길 38",
    "menu": "곡물 샐러드,그레이 버거,그린티 라떼(아이스),그린티 라떼(핫),디카페인 커피 블렌딩,딸기 라떼(핫),딸기요거트,딸기차(핫),리코타치즈 새우 샐러드,바닐라 라떼(아이스),바닐라 라떼(핫),바질페스토 비건 오일파스타,버섯 크림 스파게티,버섯 파니니,블루베리 요거트,빠네 브로콜리 스프,사이다,새우 로제 파스타 ,생딸기우유(아이스),샷추가,서비스 토핑 추가(2개부터),세가지맛 타파스 Ver.1,세가지맛 타파스 Ver.2,수박 주스(시즌한정),수제 딸기에이드,수제 레몬에이드,수제 레몬티(아이스),수제 레몬티(핫),수제 자몽에이드,수제 자몽티(아이스),수제 자몽티(핫),수제 청귤에이드,수제 청귤티(아이스),수제 청귤티(핫),수제 트리플베리 에이드,수제 트리플베리티(아이스),수제 트리플베리티(핫),수제 패션후르츠 에이드,수제 패션후르츠티(아이스),수제 패션후르츠티(핫),수제햄 & 연어 에그 베네딕트,수제햄 에그 베네딕트,수제햄 치즈 파니니,아메리카노,아메리카노 리필,아이스크림,아인슈페너(아이스",
    "tel": "07087370001",
    "lat": 37.659083,
    "lng": 127.12797
  },
  {
    "id": "512898",
    "name": "테르찌 커피",
    "category": "카페",
    "address": "전라남도 진도군 진도읍 동외1길 8",
    "menu": "size up!,고구마,그린티,녹차,더블 모카,돌체라떼,딸기,딸기 라떼,딸기 바나나,딸기 요거트,레몬 에이드,레몬밤,레몬차,레인보우 케이크,로얄 밀크티,롱블랙,루이보스,망고,망고 라떼,망고 바나나,망고 요거트,매실차,민트초코,밀크레이프 케이크,바닐라 라떼,복숭아 아이스티,복자 에이드,블루베리,블루베리 요거트,생강차,생크림 와플,썸머라떼,아메리카노,아인슈패너,아포카토,얼그레이,에스프레소,오곡 미숫가루,오레오,유자차,자몽 에이드,자몽차,자바칩,자스민,죠리퐁,청포도 에이드,초코,초코 케이크,치즈,카라멜마끼아또,카페라떼,카페모카,카푸치노,캐모마일,콜드브루,콜드브루 돌체라떼,콜드브루 라떼,쿨 라임 에이드,크림 녹차,크림 라떼,키위,토마토,토피넛,패션 후르츠,페퍼민트,플레인 요거트,피치 블랜딩 티,허니브레드,헤즐넛 라떼,화이트모카,히비스커스,히비스커스 비건디",
    "tel": "01033247118",
    "lat": 34.4812765,
    "lng": 126.2692198
  },
  {
    "id": "523155",
    "name": "캘리포니아피자키친",
    "category": "양식",
    "address": "서울특별시 강남구 테헤란로 152",
    "menu": "LUNCH DUO(런치/~15:00),갈릭 파마산 치킨 크림 파스타,감베로니 스파게티,나탈리스 착즙주스(오렌지),나탈리스 착즙주스(오렌지비트),나탈리스 착즙주스(자몽),더 윅스(ORIGINAL),더 윅스(SINGLE),마르게리타(ORIGINAL),마르게리타(SINGLE),머쉬룸 페퍼로니 소세지(ORIGINAL),머쉬룸 페퍼로니 소세지(SINGLE),멕시칸 스트릿콘 피자(ORIGINAL),멕시칸 스트릿콘 피자(SINGLE),비건 음료(라임),비건 음료(블러드 오렌지),새우,소프트 드링크(사이다),소프트 드링크(페리에 탄산수),소프트 드링크(펩시),수비드 파워볼(BEEF),수비드 파워볼(CHICKEN),수비드 파워볼(CRISPY TOFU),수제 맥주(IPA),수제 맥주(라거),스테이크 크림 리조또,스파이시 쉬림프 필라프,아보카도,언리미트 볼로네제 스파게티,언리미트 화이타  피자(SINGLE),언리미트 화이타 피자(ORIGINAL),오리지널 바베큐 치킨 피자(ORIGINAL),오리지널 바",
    "tel": "025085871",
    "lat": 37.5000242,
    "lng": 127.0365086
  },
  {
    "id": "528160",
    "name": "리틀프레스커피",
    "category": "카페",
    "address": "서울특별시 마포구 성미산로 200",
    "menu": "더치라떼,더치원액 보틀(500ml),더치커피,디카페인,디카페인(대상자/드립백(8개)),디카페인(벌크포장/드립백(6개)),디카페인(소상자/드립백(3개)),롱블랙,모카프레소,모카프레소&블랙(숏아메리카노),블렌딩(대상자/드립백(8개)),블렌딩(벌크포장/드립백(6개)),블렌딩(소상자/드립백(3개)),비건 소이라떼,시그니처 크림쓰어다,시그니처 흑당커피,싱글오리진,싱글오리진(대상자/드립백(8개)),싱글오리진(벌크포장/드립백(6개)),싱글오리진(소상자/드립백(3개)),아메리카노,아포가토,이탈리안 토스트,카페 쓰어다,카페라떼,카페모카,클래식 카푸치노,티라미수,혼합(블렌딩+싱글오리진/대상자/드립백(8개)),혼합(블렌딩+싱글오리진/벌크포장/드립백(6개))",
    "tel": "07050330042",
    "lat": 37.5622025,
    "lng": 126.9269623
  },
  {
    "id": "528785",
    "name": "우가",
    "category": "한식",
    "address": "서울특별시 강남구 도산대로49길 22",
    "menu": "공기밥,글렌피딕 12년,글렌피딕 12년 하이볼,글렌피딕 15년,끌로 뒤 뱔 까베르네 쇼비뇽,니콜라스 제이 비숍 크릭 피노 누아,도미니오 핑구스 psi,돔페리뇽 빈티지 2010,라 브라제스카 비노 노빌레 디 몬테풀치아노,라가드베자나 GSM,레드 와인 (하우스),르 비유 돈종 샤또네프 뒤 빠쁘,리오하 알타 토레드 오나,마스던꼼때,마츠 엘 레시오,매티스 우버블렌드,맥스 리제르바 카르메네르,몰리두커 투 레프트 피트,바디아 디 모로나 비냐 말타 산지오베제,밥 (대),밥 (소),밥(大),밥(小),베르데치요 글라스,베르데치요 오가닉&#38;비건,병맥주 스텔라 아르투아 500ml,병맥주 카스,병맥주 클라우드,병맥주 테라,병맥주(카스_),병맥주(클라우드),병맥주(테라),보리우 빈야드 나파 카르베네 쇼비뇽,볼랭저 스페셜 뀌베 브뤼 NV,불고기 치아바타 샌드위치,브라더스 인 암즈 쉬라즈,비냐 알마비바,산펠레그리노,새로,생맥주 블랑1664,생맥주 산토리 프리미엄,생맥주 성수동 페일에일,생맥주 하이네켄,생",
    "tel": "0262722223",
    "lat": 37.5243656,
    "lng": 127.0373615
  },
  {
    "id": "532197",
    "name": "스노우폭스",
    "category": "기타",
    "address": "서울특별시 강남구 테헤란로 152",
    "menu": "100% 수제 그릭 요거트,고단백 연두부 샐러드,꽃차(장미),꽃차(해피골드),다니엘 스페셜,다이어트 비건 롤,단호박 감자,닭가슴살 머스타드 샌드위치,닭가슴살 샐러드,더블치즈 함박스테이크,디톡스워터(애플라즈베리),디톡스워터(오렌지레몬),디톡스워터(트리플베리),따끈 어묵탕,레몬(ICE),롤 콤보,롤니기리 콤보,매콤고기김치 덮밥,메가 새우 템푸라 롤,메소스프,바나나&블루베리,바나나&케일,바닐라 라떼(HOT),바닐라 라떼(ICE),붉은 대게장 오니기리,브로콜리 스프,사과&케일,새우 드레곤 롤,샐몬 드레곤 롤,세트메뉴1,세트메뉴10,세트메뉴11,세트메뉴12,세트메뉴13,세트메뉴14,세트메뉴15,세트메뉴16,세트메뉴17,세트메뉴18,세트메뉴19,세트메뉴2,세트메뉴20,세트메뉴21,세트메뉴3,세트메뉴4,세트메뉴5,세트메뉴6,세트메뉴7,세트메뉴8,세트메뉴9,순진한 닭갈비,스노우 시티 롤,스트로베리로즈(ICE),아메리카노(HOT),아메리카노(ICE),양송이 스프,얼그레이 리저브,에그 포테이토 샌드위",
    "tel": "025588082",
    "lat": 37.5000242,
    "lng": 127.0365086
  },
  {
    "id": "534680",
    "name": "스노우폭스",
    "category": "한식",
    "address": "서울특별시 강남구 테헤란로4길 6",
    "menu": "100% 수제 그릭요거트,고단백 연두부 샐러드,꿀차,다니엘 스페셜,다이어트 비건 롤,단호박 감자,닭가슴살 머스타드 샌드위치,닭가슴살 샐러드,더블치즈 함박스테이크,디톡스워터(애플라즈베리),디톡스워터(오렌지레몬),디톡스워터(트리플베리),따끈 어묵탕,레몬,롤 콤포,롤니기리 콤보,매콤고기김치덮밥,메가 새우 템푸라 롤,모닝세트1(7:30AM~10:00AM),모닝세트10(7:30AM~10:00AM),모닝세트11(7:30AM~10:00AM),모닝세트12(7:30AM~10:00AM),모닝세트13(7:30AM~10:00AM),모닝세트14(7:30AM~10:00AM),모닝세트15(7:30AM~10:00AM),모닝세트16(7:30AM~10:00AM),모닝세트2(7:30AM~10:00AM),모닝세트3(7:30AM~10:00AM),모닝세트4(7:30AM~10:00AM),모닝세트5(7:30AM~10:00AM),모닝세트6(7:30AM~10:00AM),모닝세트7(7:30AM~10:00AM),모닝세트8(7:30A",
    "tel": "025568082",
    "lat": 37.4976674,
    "lng": 127.0292864
  },
  {
    "id": "535349",
    "name": "베제투스",
    "category": "일식",
    "address": "서울특별시 용산구 신흥로 59",
    "menu": "게롤슈타이너 스파클링 워터(독일/330ml),그린티(유기농/HOT),그린티(유기농/ICE),나우(BOTTLE/오가닉/이탈리아),나쵸칩,나쵸칩 추가,라자냐 (글루텐프리),레 그랑 블랑 리저브(BOTTLE/네추럴/프랑스),레몬 아이스티,레몬에이드,레몬이블,레페 브라운(벨기에/330ml),루이보스(디카페인/HOT),루이보스(디카페인/ICE),루이보스(유기농/HOT),루이보스(유기농/ICE),맥앤치즈 (글루텐프리),메르시노(BOTTLE/네추럴/이탈리아),모아 로제 사이다(뉴질랜드/750ml),모아 스테이션 IPA(뉴질랜드/330ml),모아 애플사이다(뉴질랜드/330ml),모아 오리지널 라거(뉴질랜드/330ml),모히또,미니 라따뚜이 (글루텐프리/넛츠프리),믹스드 올리브(넛츠프리),바질페스토 파스타 (글루텐프리),밤부티(디카페인/HOT),밤부티(디카페인/ICE),밤부티(유기농/HOT),밤부티(유기농/ICE),베제투스 버거,보드카토닉,볼로네제 파스타 (글루텐프리/넛츠프리),분다버그 진저 비어(",
    "tel": "07088245959",
    "lat": 37.5437081,
    "lng": 126.9872656
  },
  {
    "id": "540351",
    "name": "카우떡볶이",
    "category": "기타",
    "address": "서울특별시 서대문구 이화여대길 88-21",
    "menu": "고구마,고기만두,고추,고추장 고기볶음 주먹밥,김말이,까르보나라 떡볶이(2인분),까르보나라떡볶이(1.5인분),단호박,닭가슴롤,떡볶이(1인분),떡볶이(매운맛),떡볶이(순한맛),떡볶이(중간),로제 떡볶이(1.5인분),로제 떡볶이(2인분),매운 까르보나라 떡볶이(2인분),매운 로제 떡볶이(2인분),무뼈닭발(Large/매운맛),무뼈닭발(Large/순한맛),무뼈닭발(Medium/매운맛),무뼈닭발(Medium/순한맛),비건 감자마요밥,비건 고구마,비건 고추장고기볶음밥,비건 김말이,비건 까르보나라,비건 단호박,비건 떡볶이,비건 로제떡볶이,비건 새송이,비건 짜장떡볶이,비건 쫄라당,빵 추가(4pcs),새우,어묵,오징어,짜장 떡볶이(2인분),쫄라당(1.5인분),쫄라당(1.5인분/매운맛),쫄라당(1.5인분/순한맛),쫄라당(1.5인분/중간),참치깻잎,참치마요 주먹밥,찹쌀순대,치즈김말이,치즈떡볶이(1인분),치즈떡볶이(매운맛),치즈떡볶이(순한맛),치즈떡볶이(중간),치즈바나나,치즈쫄라당(1.5인분),치즈쫄라당(",
    "tel": "023139999",
    "lat": 37.5595828,
    "lng": 126.9439427
  },
  {
    "id": "544541",
    "name": "들밥상",
    "category": "한식",
    "address": "경상북도 상주시 왕산로 22",
    "menu": "돌솥비빔밥정식,된장찌개정식,순두부맑은탕정식(매운맛),순두부맑은탕정식(순한맛),순두부버섯전골(매운맛/大),순두부버섯전골(매운맛/小),순두부버섯전골(순한맛/大),순두부버섯전골(순한맛/小),청국장정식",
    "tel": "0545341781",
    "lat": 36.4064706,
    "lng": 128.1615345
  },
  {
    "id": "545792",
    "name": "캘리포니아 피자 키친",
    "category": "양식",
    "address": "서울특별시 강남구 영동대로 513",
    "menu": "갈릭 버터 프라이,갈릭 크림 페투치니,골든 스테이트 플래터,과일 에이드(레몬),과일 에이드(오렌지),과일 에이드(자몽),국산 생맥주,나탈리스 착즙주스(오렌지),나탈리스 착즙주스(오렌지비트),나탈리스 착즙주스(자몽),루꼴라&잠봉 피자,마르게리타,머쉬룸 크림 빠네 스프,메인 토핑(그릴드 치킨),메인 토핑(비건 고기),메인 토핑(새우),메인 토핑(크리스피베이컨),메인 토핑(페퍼로니),메인 토핑(풀드포크),모히또(무알콜/라임),모히또(무알콜/자몽),모히또(무알콜/파인애플),모히또(알콜/라임),모히또(알콜/지몽),모히또(알콜/파인애플),봄베이 하이볼,비건 음료(라임),비건 음료(블러드 오렌지),비욘드 미트 버거,비프 알리오 올리오,선샤인 글라스,소프트 드링크(사이다),소프트 드링크(콜라),쉬림프 로제 리조또,스모크 풀드포크 피자,스테이크 갈릭 리조또,스테이크 갈릭 리조또 SET(~15:00),스파이시 시푸드 스튜 파스타,스파이시 치폴레 치킨 피자,스파클링 베리-레몬,스파클링 피치-크랜베리,스",
    "tel": "025516500",
    "lat": 37.5118239,
    "lng": 127.059159
  },
  {
    "id": "549062",
    "name": "잇다프로젝트",
    "category": "기타",
    "address": "서울특별시 마포구 성미산로31길 14",
    "menu": "Artist Set_A(2인),Artist Set_B(2인),Designer Set_A(3인),Designer Set_B(3인),관자 카르파쵸,라자냐(디아볼로),라자냐(볼로네제),리조또(고창보리트러플),빵 추가(2 piece),샐러드(관자),샐러드(부라타치즈),샐러드(쉬림프 시저),아이스크림,잇다 치즈 플레이트,티라미수,파스타(감베레띠),파스타(보타르가(숭어알)),파스타(새우크림),파스타(서해 봉골레),파스타(알 페스토),파스타(오징어먹물),파스타(청도미나리),파스타(토마토),파스타(토마토/비건),판나코타,한우 채끝 스테이크(200g),한우 채끝 스테이크(400g),한우 카르파쵸",
    "tel": "023352258",
    "lat": 37.5644624,
    "lng": 126.9256565
  },
  {
    "id": "555059",
    "name": "카페써니",
    "category": "카페",
    "address": "경상남도 김해시 주촌면 골든루트로 80-16",
    "menu": "간단 주문식 도시락(김밥),간단 주문식 도시락(도시락),간단 주문식 도시락(샌드위치),갈덕갈떡 꼬지,감자고기 찐만두,건강밥상,국화차(Hot),국화차(ICE),녹차(Hot),녹차(ICE),녹차라떼,등심야채 돈까스,등심야채 치즈돈까스,런치 영양 샌드위치,매운 땡초김밥,미니 비건 영양버거,미니 영양버거,밀크티(Hot),밀크티(ICE),바닐라 라떼(Hot),바닐라 라떼(ICE),비건 콩고기 비빔밥,생과일 쥬스(딸기),생과일 쥬스(망고바나나),생과일 쥬스(키위),생과일 쥬스(토마토),아메리카노(Hot),아메리카노(ICE),아이스티(레몬),아이스티(복숭아),야채 해초 비빔밥,에이드(레몬),에이드(석류미초),에이드(자몽),에이드(청포도),영양 유부초밥,자색고구마라떼,자색고구마라떼(Hot),쪼랭이 감자 만두,초코(Hot),초코(ICE),카라멜 마끼야또(Hot),카라멜 마끼야또(ICE),카페라떼(Hot),카페라떼(ICE),카페모카(Hot),카페모카(ICE),카푸치노(Hot),카푸치노(ICE),허브티",
    "tel": "0553379005",
    "lat": 35.2131906,
    "lng": 128.8316544
  },
  {
    "id": "562927",
    "name": "우리밀 제빵소 레헴",
    "category": "베이커리",
    "address": "대구광역시 달성군 다사읍 대실역북로2길 137",
    "menu": "생딸기케이크(2호/시즌메뉴),스페셜티(200g),아웃스탠딩(100g),우리밀 고구마케이크(2호),우리밀 골든키위케이크(2호),우리밀 과일컵케이크(9온즈),우리밀 단팥크림케이크(2호),우리밀 단호박치즈케이크(3호),우리밀 당근케이크(2호),우리밀 당신생강 채식케이크(2호),우리밀 당신생강 채식파운드(파운드),우리밀 말차단팥크림케이크(2호),우리밀 초코오페라(2호),우리밀 치즈케이크(3호),우리밀 크림케이크(2호)",
    "tel": "01025244860",
    "lat": 35.8651093,
    "lng": 128.4662475
  },
  {
    "id": "564175",
    "name": "더플레이스",
    "category": "양식",
    "address": "서울특별시 중구 한강대로 416",
    "menu": "BEST SET,가든 관자 파스타,고르곤졸라 피자,그린 파이버(레몬),그린 파이버(밀싹),그린 파이버(사과),그린 파이버(케일),그린 파이버(파인애플),까르보나라 페투치니,딸리아따 디 만조(채끝등심 350g),레드 자스민,루꼴라 부라타 치즈 피자,리코타 프루타 샐러드,마레 파스타,벨로 스트로베리,블랙 모찌볼,블랙앵거스 립아이 스테이크(꽃등심 240g),블러드 오렌지,비건 미트 샐러드,비바체 레몬,비타민 샤워(레몬),비타민 샤워(사과),비타민 샤워(오렌지),비타민 샤워(자몽),비타민 샤워(파인애플),뽈리뽀 알리오 올리오,사이다,산 펠레그리노 탄산수,살모네 샐러드,샤인머스캣&청포도,쉬림프 로제 링귀네,스모키 돔 채끝 스테이크(채끝등심 210g),스테이크 샐러드,시즈널 스프,아메리카노,아포가토,애플 타르트&바닐라 아이스크림,양념감자 프라이즈,에너지 부스트(당근),에너지 부스트(사과),에너지 부스트(오렌지),에너지 부스트(유자),에스프레소,잠봉 뵈르 피자,잠봉 시저 샐러드,제로콜라,치즈칩 ",
    "tel": "0264568968",
    "lat": 37.5555036,
    "lng": 126.9737513
  },
  {
    "id": "566389",
    "name": "아프리카커피초콜릿",
    "category": "카페",
    "address": "전북특별자치도 전주시 완산구 문학대4길 28-3",
    "menu": "고구마라떼(HOT),고구마라떼(ICE),녹차라떼(HOT),녹차라떼(ICE),다크초콜릿모카,다크초콜릿비엔나,다크초콜릿핫초코,달고나라떼(HOT),달고나라떼(ICE),딸기,딸기(시즌),딸기빙수(시즌메뉴),모로코라떼(HOT),모로코라떼(ICE),바닐라카페라떼(HOT),바닐라카페라떼(ICE),블루베리,수제차(레몬/HOT),수제차(레몬/ICE),수제차(복분자/HOT),수제차(복분자/ICE),수제차(오미자/HOT),수제차(오미자/ICE),수제차(유자/HOT),수제차(유자/ICE),수제초콜릿빙수,슈렉라떼(ICE),아메리카노(HOT),아메리카노(ICE),아메리카노+샌드위치세트(AM8:00~),아이스티(레몬),아이스티(복숭아),아포카토(ICE),아프리카식자이언트샌드위치(1.5배)(AM8:00~),아프리카식채식주의샌드위치(AM8:00~),아프리카식클럽샌드위치(AM8:00~),에스프레소(HOT),에이드(딸기),에이드(복숭아),에이드(블루레몬),에이드(유자),에이드(자몽),에이드(키위),유자,자몽(시즌),",
    "tel": null,
    "lat": 35.8264081,
    "lng": 127.1050319
  },
  {
    "id": "580509",
    "name": "마지",
    "category": "양식",
    "address": "서울특별시 종로구 자하문로5길 19",
    "menu": "구절판코스,끼니올림,도담두부,들깨미역국,들깨수제비,런치·디너세트,마지비빔밥,배냉면,버섯덮밥,신선로코스,알천코스,연밥올림,오늘의마지(연밥),오늘의마지(현미·기장),우엉잡채밥,호두만두국,호박죽",
    "tel": "025365228",
    "lat": 37.57761,
    "lng": 126.9708053
  },
  {
    "id": "585860",
    "name": "마샹스",
    "category": "카페",
    "address": "경상남도 남해군 창선면 율도로 10",
    "menu": "강원도 들깨 파스타,과일크림,남해 멸치 파스타,남해 해물파스타,땡초 한우크림 파스타,로메인 베이컨 시저샐러드,루꼴라 하몽 피자 L,루꼴라 하몽 피자 S,루꼴라 허브 오일 파스타,바나나 누텔라,바질 페스토 그린파스타,브라운 치즈 크로플,브런치,블루치즈 딥 & 천연 효모 빵 ,비건 샌드위치 바질페스토,비건 샌드위치 아보카도 바질페스토,비건 샌드위치 오리지날,수제소세지&볶음밥,오픈아보카도 바질페스토,초코 치즈 크런치,치즈 바움쿠헨,트러플오일 베이컨 리조또 ,페퍼론치노 토마토 리조또,페퍼론치노 토마토 파스타,한우 불고기 피자 L,한우 불고기 피자 M,한우불고기 볶음밥,한우불고기 크림 파스타 ",
    "tel": "0558671199",
    "lat": 34.8921978,
    "lng": 128.0119292
  },
  {
    "id": "588823",
    "name": "케일리팜 키친",
    "category": "양식",
    "address": "경기도 파주시 송학1길 126-29",
    "menu": "120산타리타,120산타리타(금요일),감바스,고르곤졸라,그릭 포케볼,그릴 소시지와 야채구이,그릴 치킨,그릴가지 오일파스타,단호박 파인애플,단호박시금치 크림파스타,들깨 크림 파스타,라떼(아이스),라떼(핫),레몬블랙아이스티,리코타 계절샐러드,마스카포네치즈추가(1스쿱),매콤새우 로제파스타,명란 리코타 샐러드피자,명란새우크림파스타,모히토,바닐라라떼(아이스),바닐라라떼(핫),바베큐(주말),바베큐(주말/라지),바질페스토 샐러드피자,바질페스토 프로슈토피자,베이컨버섯 크림 파스타,베지보울,부라타치즈피자,부라타토마토파스타,블랙퍼스트,비건 포케보울,비스마르크,비트 라즈베리,비프 스테이크(220g),비프 포케보울,새우 오일파스타,새우 토마토 라이스 그라탕,새우 포케보울,새우크림피자,새우퐁듀 브레드,샐러도 오일파스타,생과일쥬스(바나나),생과일쥬스(자몽),생과일쥬스(제철과일),생과일쥬스(토마토),생맥주,샤퀴테리플래터,소프트드링크(사이다),소프트드링크(스프라이트),소프트드링크(콜라),소프트드링크(환타),수제",
    "tel": "0319463457",
    "lat": 37.7155825,
    "lng": 126.7647451
  },
  {
    "id": "597688",
    "name": "잘빠진메밀",
    "category": "한식",
    "address": "서울특별시 종로구 율곡로8길 73",
    "menu": "100% 메밀전,3총사 모둠 감자전,강쇠,강원도 감자전(2장),강원도감자전(260g),고기(150g)추가(유자에 빠진수육),고기듬뿍만두전골(1인),깊은맛막걸리샘플러5종,녹두당면(150g),느린마을 ,달큰한막걸리샘플러5종,려驪증류소주 25(75ml),마라맛추가,막걸리샘플러8종,막국수(물),막국수(비빔),만두국한상(만두국+전병2조각+수육2점+메밀면50g),만두전골(1인),만두전골(2인),만두전골(3인),만두전골(4인),만두전골2인+막걸리샘플러8가지,만두전골3인+수육(소),맥주,메밀 왕만두,메밀꽃 만두전골,메밀막국수(물,비빔/300g),메밀싹전병(메밀),메밀싹전병(해물),메밀왕만두(4P),메밀왕만두국,메밀전병,모둠감자전(390g),모둠감자전(녹두,부추,감자3총사 390g),사리추가(메밀),사리추가150g(주문전),사리추가250g(주문후),사이다,삼겹양지추가(200g),새싹야채,소주,솔송주,송명섭,수육한접시(400g),순메밀 채식 막국수,순메밀막국수(물300g),순메밀막국수(비빔300g),",
    "tel": "07041131214",
    "lat": 37.5740314,
    "lng": 126.9914913
  },
  {
    "id": "606159",
    "name": "러빙헛 랜드",
    "category": "양식",
    "address": "서울특별시 강남구 논현로16길 17",
    "menu": "가지카레 덮밥,감자 튀김,감자체다샌드위치,곤약비빔면,곤약팟타이,두부덮밥,두부탕면,루꼴라 퀘사디아,매운탕면,머쉬룸 퀘사디아,부추 된장 비빔밥,불구이김밥,비건 너비아니,비건 키토김밥,비건 탕수,빅랜드버거,빨리도시락,빨리비건도시락,소이후라이드,쌀까스스페셜,쌀떡볶이,아보카도 ST.,아보카도스테이크,양념소이,채소 부리또,채소비빔밥,치즈감자 샌드위치,카레라이스,카레쌀까츠멘,크림튀김만두,키토김밥",
    "tel": "025780512",
    "lat": 37.4767514,
    "lng": 127.0477006
  },
  {
    "id": "608503",
    "name": "로드샌드위치",
    "category": "양식",
    "address": "서울특별시 서대문구 연대동문길 45",
    "menu": "A set,B set,C set,ICE,RED GLASS(글라스 와인),WHITE GLASS(글라스 와인),감베리(새우),감자튀김,고르곤졸라 크림,그랑끼오 비스크,꿀생강,녹차,녹차라떼,딸기,딸기 바나나,레몬,레몬홍차,루꼴라,리코타치즈,마녀,마르게리따,망고,매운 치킨,명란크림,모카라떼,바닐라,바닐라 라떼,버섯,베이컨,베이컨 치즈 오믈렛,베지 or 비건,보틀,블루베리 스무디,비엘티,비프 스테이크,살라미,새우추가,스파이시 감베리,아마트리치아나,아메리카노,아보카도,아쌈,아포가또,안심추가,알리오올리오,애플망고,양송이,얼그레이,에그머니,에스프레소,에스프레소 아이스크림,연어,오렌지,오일,웰빙치킨(굽기),웰빙치킨(삶기),자몽,청포도,초코,초코라떼,치킨,카라멜라떼,카모마일,카페라떼,카푸치노,콰트로 포르마지,크로크 마담 오픈,터키햄,토마토,트러플오일 감자튀김,파스트라미,페퍼민트,필리치즈 스테이크,햄치즈,화이트라구",
    "tel": "023634554",
    "lat": 37.5644201,
    "lng": 126.9444139
  },
  {
    "id": "613544",
    "name": "리스브레드",
    "category": "베이커리",
    "address": "전북특별자치도 전주시 완산구 거마평로 58",
    "menu": "고구마식빵,그 외 쿠키,단호박당근카스테라,단호박식빵,롤치즈식빵,모카헤이즐넛,밤식빵,블루베리식빵,야채식빵,오징어먹물빵,초코식빵,크림치즈빵,통밀빵,피자롤치즈빵,홍국쌀식빵",
    "tel": "0632290250",
    "lat": 35.7976851,
    "lng": 127.1170565
  },
  {
    "id": "626196",
    "name": "카페 썬",
    "category": "카페",
    "address": "서울특별시 마포구 동교로17안길 51",
    "menu": "두유들깨버섯파스타,두유현미떡국,베지터블스튜,병아리콩현미밥샐러드,제철채소토마토소스파스타,현미단호박수프,현미된장자장덮밥",
    "tel": "023368457",
    "lat": 37.556572,
    "lng": 126.9187623
  },
  {
    "id": "626789",
    "name": "이츠굿 베이커리",
    "category": "카페",
    "address": "경기도 용인시 기흥구 흥덕2로87번길 18",
    "menu": "감자샐러드식빵(큐브),고구마식빵(미듐),고구마식빵(큐브),더치모카식빵(미듐),더치모카식빵(큐브),리얼딸기식빵(큐브),리얼초코식빵(큐브),마늘식빵(미듐),마늘식빵(큐브),메론식빵(미듐),메론식빵(큐브),밤식빵(미듐),밤식빵(큐브),버터식빵(미듐),버터식빵(큐브),소프트식빵,순우유식빵(大),순우유식빵(큐브),시나몬식빵(미듐),시나몬식빵(큐브),야채식빵(미듐),야채식빵(큐브),오징어먹물식빵(미듐),오징어먹물식빵(큐브),찰떡식빵(미듐),찰떡식빵(큐브),초코식빵(미듐),초코식빵(큐브),크림치즈식빵(미듐),크림치즈식빵(큐브),크림치즈페이스트리(큐브)",
    "tel": "0312152799",
    "lat": 37.2758482,
    "lng": 127.0718775
  },
  {
    "id": "629861",
    "name": "더플레이스",
    "category": "양식",
    "address": "부산광역시 중구 중앙대로 2",
    "menu": "가든 관자 파스타,고르곤졸라 피자,고르곤졸라&프레시 마르게리따,그린 파이버(레몬),그린 파이버(밀싹),그린 파이버(사과),그린 파이버(케일),그린 파이버(파인애플),까르보나라 페투치니,레드 자스민,루꼴라 부라타 치즈 피자,리코타 프루타 샐러드,마레 파스타,베스트커플세트,벨로 스트로베리,블랙 모짜볼,블러드 오렌지,비건 미트 샐러드,비바체 레몬,비타민 샤워(레몬),비타민 샤워(사과),비타민 샤워(오렌지),비타민 샤워(자몽),비타민 샤워(파인애플),뽈리뽀 알리오 올리오,사이다,산 펠레그리노 탄산수,살모네 샐러드,샤인머스캣&청포도,쉬림프 로제 링귀네,스테이크 샐러드,스페셜세트메뉴,시즈널 스프,아메리카노,아포가토,애플 타르트&바닐라 아이스크림,양념감자 프라이즈,에너지 부스트(당근),에너지 부스트(사과),에너지 부스트(오렌지),에너지 부스트(유자),에스프레소,잠봉 뵈르 피자,잠봉 시저 샐러드,제로콜라,치즈칩 아마트리치아나,치킨 앤 칩스,카모마일,카페라떼,카푸치노,콜라,크랩 로제 리조또,크림 마",
    "tel": "0516783106",
    "lat": 35.0979849,
    "lng": 129.0366323
  },
  {
    "id": "630694",
    "name": "캘리포니아피자키친",
    "category": "양식",
    "address": "서울특별시 강서구 하늘길 38",
    "menu": "Delight,Enjoy,Love,갈릭 크림 페투치니(버섯),갈릭 크림 페투치니(새우),갈릭 크림 페투치니(치킨),고르곤졸라 추가,골든 스테이트 플래터,과일 에이드(레몬) 추가,과일 에이드(오렌지) 추가,과일 에이드(자몽) 추가,과일에이드(레몬),과일에이드(오렌지),과일에이드(자몽),국산 생맥주,그릴드 스퀴드 에그 필라프,그릴드 치킨 추가,그릴드 치킨 컬리라이스 볼,나탈리스 착즙주스(오렌지),나탈리스 착즙주스(오렌지비트),나탈리스 착즙주스(자몽),라임(무알콜),라임(알콜),런치 상그리아 추가,로스티드 아티쵸크&스피나치,마르게리타,맥앤치즈 푸실리,머쉬룸 크림 빠네 스프,모짜렐라 추가,몬트레이 잭 추가,발사믹 가든 피자,버섯 추가,버터 케이크,벨지언 초코 수플레 케이크,비건 음료(라임),비건 음료(블러드 오렌지),비건 음료(패션 후르츠),비욘드 미트 버거,비욘드 소시지 컬리라이스 볼,사이다,살라미 추가,살몬 컬리라이스 볼,새우 추가,선샤인 글라스,소이미트 크런치 볼,스모크 햄 추가,스테",
    "tel": "0261165835",
    "lat": 37.5632583,
    "lng": 126.8030586
  },
  {
    "id": "632715",
    "name": "휴가",
    "category": "카페",
    "address": "서울특별시 은평구 진관2로 19",
    "menu": "ade 변경,감자튀김,고르곤졸라,구파발 세트,까르보나라,딸기요거트,레몬,레몬스카이,레몬콤부차,루꼴라,리코타 치즈 샐러드,마르게리타,명란들깨 파스타,밀크티라떼,바닐라라떼,버팔로윙,병맥주,봄파스 에이드(망고 발사믹),봄파스 에이드(화이트 발사믹),봉골레,부라타 치즈 샐러드,블루베리,블루베리요거트,비건살시챠,비타민 콜라겐 에이드,비타민 콜라겐 요거트 스무디,빵추가 브리오슈 번,빵추가 치아바타,새우로제,샐러드 냉 파스타,샐러드빵 추가 브리오슈번,샐러드빵 추가 치아바타,소고기토마토 라이스,소다 스프라이트,소다 펩시,수제맥주 벨지안 위트,수제맥주 슬로우 아이피에이,수제맥주 헤이허니,스파이시 새우 파스타,아마트리치아나,아메리카노,알리오 올리오,얼그레이,에그 토마토 샌드위치+아메리카노,에스프레소,연어 그라브락스 샐러드,오늘의 스프,오렌지,와사비 치킨텐더,자색고구마 피자,쟈스민,제주 말차라떼,차돌박이 샌드위치+아메리카노,차돌박이 샐러드,청포도,체리슬립에이드,초코라떼,치킨 디아볼로 피자,치킨라이스,치",
    "tel": "023527400",
    "lat": 37.6348535,
    "lng": 126.9195847
  },
  {
    "id": "632723",
    "name": "마치래빗 샐러드",
    "category": "기타",
    "address": "전북특별자치도 전주시 완산구 홍산남로 30",
    "menu": "계란후라이,구운닭가슴살(100g),그린래빗,그린후머스,꿀에절인블루치즈,닭가슴살샌드위치,두도,두부스테이크(110g),땅콩,런치채소,런치채소_닭가슴살(50g),런치채소_두부(110g),런치채소_드레싱,런치채소_버섯(100g),렌틸살사,로메인(90g),바나나망고,방울토마토,버섯(100g),베이컨,베진타,병아리콩,브레아발사믹,블랙올리브,블루베리두부,비바멕시코,비프샌드위치,비프스테이크(100g),삶은계란,새우샌드위치,소고기(50g),스도,스태미나,스파이시마요네즈,스프(옥수수),스프(완두콩),스프라이트,시저,시즌채소(90g),아보카도,양파(적),오리엔탈,윈스(겨울),윈치(겨울),윈토(겨울),체다치즈,치도,치폴레,케이준새우(85g),케일사과,코카콜라,코코넛워터,콥,퀴노아후머스,탄산수,토마토당근,파마산치즈,할라피뇨,해피비건",
    "tel": "0632261974",
    "lat": 35.8155298,
    "lng": 127.1050092
  },
  {
    "id": "638831",
    "name": "SUN THE BUD",
    "category": "양식",
    "address": "서울특별시 강남구 압구정로60길 18",
    "menu": "갑오징어 야끼소바,계절과일 주스,고구마,구운연어,그레인 라이스,그린 클렌징,그릴 야채 샐러드,다시마 숙성 연어덮밥,닭가슴살 레드커리 라이스,닭가슴살 샌드위치,닭가슴살 수란 비빔밥,닭가슴살 스테이크,들기름 막국수,라이스 샐러드,레드 클렌징,밀크티(HOT),밀크티(ICED),베리 베리,부리또 볼,부채갈,부채살 스테이크 덮밥,블루베리 루이보스(HOT),블루베리 루이보스(ICED),비건 그릴 치즈 샌드위치,비건 시저 샐러드,비건 초리조 타코,비스크 쉬림프(5ea),새우&닭가슴살 소시지 할라피뇨 스파게티,수비드 그릴 닭가슴살,숙성연어,쉬림프 반미 샌드위치,슈퍼 그레인 치킨라이스(2인),아보카도,아보카도 스무디,아보카도 토스트,안동국시,언리미트 버섯 볶음밥,언리미트 비빔밥,언리미트 스테이크 덮밥,언리미트비건 버거,언리미트필리 치즈 샌드위치,언리미티드 함박 스테이크,연어 소바마끼,연어 스테이크,오렌지과일 주스,자몽과일 주스,저당짜장,지중해식 슈퍼 샐러드,참치 포케 덮밥,카레소바,코코넛 치킨 레터",
    "tel": "0221381377",
    "lat": 37.5261871,
    "lng": 127.0417011
  },
  {
    "id": "641591",
    "name": "소이로움",
    "category": "카페",
    "address": "서울특별시 종로구 필운대로 41",
    "menu": "곡물패티버거,글루텐프리버거,두유리조또,비건함박플레이트(베지함박/비건치즈 x),비건함박플레이트(베지함박/비건치즈),야채스프커리,타코라이스,템페조림덮밥,템페탕수,포두부 두유크림 파스타,포두부 시금치클미 파스타",
    "tel": "025868088",
    "lat": 37.5797102,
    "lng": 126.9685883
  },
  {
    "id": "642532",
    "name": "필디스모먼트",
    "category": "카페",
    "address": "경기도 수원시 권선구 정조로495번길 7-9",
    "menu": "노비건 조각 케이크(그린티누텔라),노비건 조각 케이크(다크오레오),노비건 조각 케이크(레드벨벳),노비건 조각 케이크(오렌지얼그레이),노비건 조각 케이크(초코그린마블),마카롱(누텔라),마카롱(딸기),마카롱(얼그레이),마카롱(자몽),마카롱(카야),마카롱(코코넛),마카롱(피넛버터),비건 바나나 브레드(통밀/no오일),비건 병아리콩 르뱅쿠키(통밀),비건 스콘 7종(통밀/말차),비건 스콘 7종(통밀/쑥),비건 스콘 7종(통밀/얼그레이),비건 스콘 7종(통밀/자색고구마),비건 스콘 7종(통밀/초코),비건 스콘 7종(통밀/플레인),비건 스콘 7종(통밀/흑임자),비건 쑥 파운드,비건&글루텐프리 초코머핀(쌀),비건&글루텐프리 쿠키(쌀/쑥),비건&글루텐프리 쿠키(쌀/얼그레이),비건&글루텐프리 쿠키(쌀/초코),비건호두파이(통밀),프릳츠 원두(올드독 블렌드)",
    "tel": "0312360908",
    "lat": 37.2529876,
    "lng": 127.0109167
  },
  {
    "id": "645690",
    "name": "차미",
    "category": "한식",
    "address": "울산광역시 울주군 언양읍 읍성로 133",
    "menu": "두부스테이크,리코타치즈샐러드,불고기샐러드,불고기쌈파스타,전복톳조림밥,토마토 채식카레,한우불고기덮밥",
    "tel": "0522544409",
    "lat": 35.5703082,
    "lng": 129.1227559
  },
  {
    "id": "646675",
    "name": "더플레이스",
    "category": "기타",
    "address": "서울특별시 중구 세종대로 136",
    "menu": "SET A,SET B,가든 관자 파스타,고르곤졸라 피자 변경,까르보나라 페투치니,리코타 프루타 샐러드,마레 파스타,블랙 모짜볼,비건 미트 샐러드,뽈리뽀 알리오 올리오,살모네 샐러드,쉬림프 로제 링귀네,스테이크 샐러드,시즈널 스프,양념감자 프라이즈,에이드 변경(1잔),잠봉 시저 샐러드,치즈칩 아마트리치아나,치킨 앤 칩스,크렙 로제 리조또,크림 마레파스타,크림 페스카토레 리조또,트러플 프라이즈,페스카토레 리조또",
    "tel": "023180913",
    "lat": 37.5684232,
    "lng": 126.9782565
  },
  {
    "id": "652791",
    "name": "오라운트",
    "category": "카페",
    "address": "경기도 광주시 양벌로 320-4",
    "menu": "귀리 우유 변경,딸기라떼,라떼,루이보스 바닐라,루이보스아몬드밀크티,모카,바닐라 빈 라떼,바질 크로글(17시까지),바질 크림치즈(17시까지),블루베리 크림치즈(17시까지),비건 라떼,살라미크림치즈 크로글(17시까지),생과일 오렌지 주스,스트로베리 크림치즈(17시까지),쑥 크로글(17시까지),아메리카노,아인슈페너,아포가토,앙크 크림치즈(17시까지),어니언 크림치즈(17시까지),오늘의 커피,오늘의 크로글(17시까지),오늘의 핸드 드립 커피,오라운트 아이스티,원두 디카페인 추가,인어공주 에이드,자색고구마 크로글(17시까지),잠봉뵈르 크로글(17시까지),제주 녹차라떼,초코 멜로우,치즈 크로글(17시까지),커리부어스트 크로글(17시까지),콜드브루(UND블렌드),크랩 크로글(17시까지),패션 베리 에이드,페폴버거(17시까지),플레인 크로글(17시까지),플레인 크림치즈(17시까지),후르츠드림",
    "tel": "0317623793",
    "lat": 37.3713369,
    "lng": 127.2463751
  },
  {
    "id": "660941",
    "name": "날일달월",
    "category": "한식",
    "address": "서울특별시 광진구 아차산로78길 7",
    "menu": "가시오가피 발효차,감잎차,계절과일,녹즙 아침진지,두부김치,마른안주,막걸리,맥주,빛소금 병,빛소금 생활,빛소금 선물,빛소금 양치,생강차,생과일 계절음료,생채식 진지,소주,아름농원 포도즙,아티커피,야채소면,오행현미(1kg),오행현미(kg),오행현미죽 진지,와인(마디랑),와인(아라미스),유기농 과일즙(사과),유기농 과일즙(사과+포도),유기농 과일즙(포도),장흥 무산김,콩물,함씨네 두부,함씨네 콩물,훈제 닭가슴살 샐러드",
    "tel": "024570102",
    "lat": 37.5503756,
    "lng": 127.1092971
  },
  {
    "id": "663238",
    "name": "미드나잇트윈즈",
    "category": "양식",
    "address": "서울특별시 중구 을지로 167",
    "menu": "감자튀김,고기 스튜,고르곤 포르마지,글렌드로낙12y,글렌피딕12y,까르보나라,레드락생맥주(500cc),레몬하이볼,마르게리따,마리나라,매운 토마토,맥켈란12y,멜론하이볼,몽키숄더,미드나잇하이볼,미트 라구,반반피자,발베니12y,버섯,불고기 루꼴라,비건,생면,슈퍼롱티,엔초비 오일,잭다니엘 올드넘버7,잭콕,제임슨,제임슨하이볼,조니워커블랙,조니워커블루,진토닉,짐빔,짐빔하이볼,치즈더블,테드락,투샷,트러플 버섯 크림,페퍼로니,프로슈토 루꼴라,프로슈토 샐러드,헨드릭스 진,호세 쿠에르보",
    "tel": "07048330096",
    "lat": 37.5668017,
    "lng": 126.9966063
  },
  {
    "id": "674756",
    "name": "빵어니스타",
    "category": "베이커리",
    "address": "서울특별시 강남구 도산대로25길 43",
    "menu": "단호박모찌타르트,말차 파운드,말차라떼,말차쉐이크,말차쌀브라우니,말차타르트,바질두부케이크,반반 브라우니,비건 다크초콜릿 스트로베리,비건 다크초콜릿 현미크런치,아메리카노,오트밀라떼,초코 타르트,초코라떼,초코쉐이크,초코쌀브라우니,코코넛스무디커피,콩두부케이크,흑임자두부케이크",
    "tel": "025467768",
    "lat": 37.5223249,
    "lng": 127.025825
  },
  {
    "id": "674798",
    "name": "에볼루션",
    "category": "기타",
    "address": "서울특별시 강남구 도산대로 203",
    "menu": "게살 볶음밥,녹차,단호박 크림 수프,더 비건 샐러드,돌솥 비빔밥,떼루아 & 비뇨블 메를로 쉬라(Bottle),떼루아 & 비뇨블 메를로 쉬라(Glass),뚝배기 불고기,라뗴,루이 로드레 콜렉션 242(Bottle),루이 로드레 콜렉션 242(Glass),루이 페드리에 브뤼 엑셀런스(Bottle),루이 페드리에 브뤼 엑셀런스(Glass),망고,메가 크런치 프라이,미국산 프라임 소고기 채끝 등심 스테이크,민트,봉골레,뽀모도르,산페레그리노(750ml),새우 아쿠아포니스 샐러드,샤도네이(Bottle),샤도네이(Glass),세인트 프란시스 샤르도네,스프라이트,신사 버거,실레니 셀라 셀렉션 리슬링,아르볼레다 카베르네 소비뇽,아메리카노,아일랜드 이스터(Bottle),아일랜드 이스터(Glass),안티갈 우노 까베르네 소비뇽,알프레도,얼그레이,에비앙(750ml),에스프레소,오렌지,오븐에 구운 감자,오븐에 구운 버섯,우니꼬 산지오베제 리제르바,우니꼬 피노 그리지오,유기농 믹스 샐러드,잉글리쉬 블렉퍼스트",
    "tel": "0221608989",
    "lat": 37.5203044,
    "lng": 127.0285195
  },
  {
    "id": "680513",
    "name": "마르뜨",
    "category": "기타",
    "address": "서울특별시 마포구 포은로 106-1",
    "menu": "녹차 라떼,녹차 빙수,녹차 카페라떼,딸기 녹차 빙수,딸기 핑크 빙수,레인보우 치즈 빙수,로즈플라워,망고 치즈 빙수,모카치노 핫,미니 호두 타르트,바닐라 카페라떼,블루베리 빙수,비건 팥빙수,석류 에이드,쇼콜라,수플레 치즈,스윗 밀크티,스트로베리,아메리카노,얼그레이,에스프레소,자몽 에이드,죠리퐁 팥빙수,초코 라떼,초코 티라미수 케이크,카페라떼,카페모카,카푸치노,칵테일 준벅 빙수[19금],캐러멜 마끼아또,캔 젤라또 아포가토,커피 빙수,커피 세트,토핑 팥추가,트로피칼 홍차,패션 푸르트 에이드,페퍼민트,허브티 세트,히비스커스",
    "tel": "01026383442",
    "lat": 37.5565584,
    "lng": 126.9048206
  },
  {
    "id": "683351",
    "name": "도로시락",
    "category": "기타",
    "address": "서울특별시 용산구 한강대로 95",
    "menu": "B.L.T.E샌드위치,간장새우밥 변경,단호박 샐러드,단호박 크렌베리,단호박샐러드,닭갈비 도시락,돈카츠,리코타 샐러드,몬테크리스토,바질 페스토 아란치니,바질 페스토 콥 샐러드,불고기 샐러드,비건 야채롤 도시락,비건A도시락(쌀밥),비건B도시락(간장새우밥),비건유뷰 도시락,산타비토리아 레몬탄산,산타비토리아 레몬티,산타비토리아 복숭아티,산타비토리아 자몽탄산,삶은계란,생수(500ML),소불고기 도시락,숙성연어,숙성연어 샐러드,쉬림프 롤,쉬림프 콥 샐러드,아보카도,야채,에그샐러드,에그치아바타,연아카도 롤,연아카도 콥 샐러드,연어 니기리(8P),연어 쉬림프세트,연어 아보카도 세트,연어 필라 세트,연어샐러드 도시락,올리브,월남쌈 도시락,제육볶음 도시락,제철과일+아보카도,쭈구미,초밥 변경,치킨 클럽 샌드위치,치킨크리스피 샐러드,토마토 생모짜 파니니(L),토마토 생모짜 파니니(R),트레비 라임,트레비 자몽,페리에 라임,페리에 레몬,페리에 자몽,페리에 플레인,피칸 리코타 치즈,피클,필라치즈 롤,할라피뇨",
    "tel": "0263686365",
    "lat": 37.5288174,
    "lng": 126.9666538
  },
  {
    "id": "684034",
    "name": "은가비",
    "category": "기타",
    "address": "경기도 용인시 처인구 포곡읍 포곡로285번길 6-4",
    "menu": "레몬에이드,마늘바게트식빵,밀크티,아메리카노,에멘탈치즈야채식빵,추억의 옛날 소시지빵,치즈스콘/쵸코스콘,카페라테,카페모카,파인애플자몽에이드,호두단팥빵,호텔식빵",
    "tel": "01091310222",
    "lat": 37.2805898,
    "lng": 127.231773
  },
  {
    "id": "698825",
    "name": "구구리제빵소",
    "category": "베이커리",
    "address": "경상북도 영주시 대학로262번길 32",
    "menu": "곡물깜빠뉴(저온숙성 천연쌀발효),모닝빵(저온숙성)(1봉 12개),무화과 현미바게트(저온숙성),미니 파운드케이크(1묶음(4개)),미니카스테라(50g,1개),밤식빵(저온숙성 천연쌀발효빵),비건시 두부 브레드(저온숙성 천),비건식 현미찹쌀깜빠뉴(저온숙),오곡쿠키,우리밀 통밀로 만든 부드러운 통,우유식빵(저온숙성 천연쌀발효),잡곡식빵(저온숙성 천연쌀발효),치즈식빵(저온숙성 천연쌀발효),치즈쌀모닝빵(저온숙성 천연쌀),카스테라(1개/370g),타워잡곡깜빠뉴(저온숙선 천연),현미식빵(저온숙성 쌀발효빵)",
    "tel": "0546329920",
    "lat": 36.8183472,
    "lng": 128.6084043
  },
  {
    "id": "701350",
    "name": "맘스 브레드",
    "category": "베이커리",
    "address": "전북특별자치도 전주시 덕진구 기지로 70",
    "menu": "녹차라떼,닭가슴살샐러드,망고스무디,목살샐러드,바니바니 당근케이크,바닐라라떼,베이컨아보카도샐러드,복숭아아이스티,비건샐러드(채식),순수 치즈 케익,쉬림프샐러드,아메리카노,에스프레소,연어아보카도샐러드,오징어1마리샐러드,요거트스무디,자몽에이드,토마토치즈샐러드",
    "tel": "0632241108",
    "lat": 35.8380944,
    "lng": 127.0596511
  },
  {
    "id": "702257",
    "name": "남미 플랜트 랩",
    "category": "기타",
    "address": "서울특별시 서초구 방배천로4안길 55",
    "menu": "SET MENU,감자 웨지,까수엘라 뇨끼,다크 초콜릿 스무디,더블 콰트로 버섯 피자,디저트 리슬링 와인,라벤더 남미 에이드,레드 하우스 와인,레드스트라이프 맥주,로스트 포테이토,로제 크림 페투치네,마르게리타 피자,베지터블 굴라쉬,분다버그 자몽에이드,분다버그 진저에이드,블루문 맥주,블루베리 레몬에이드,비건 먹물 파스타,비우마넨 말벡 리제르바,비우마넨 샤도네 리제르바,사무엘 아담스 맥주,산펠레그리노 레몬,산펠레그리노 탄산수,석류 레몬에이드,스쿼시,시저 샐러드,알리오 올리오 스파게티,오렌지 카르파초 샐러드,제주산 감귤 스무디,차,치즈 야채 피자,치플레 빠에야,칼초네 버거,콩고기스테이크 하와이안 피자,쿠스쿠스,토마토 페투치네,파스타 베르데,화이트 하우스 와인,후무스 플래터,후무스 피자",
    "tel": "025221276",
    "lat": 37.4806094,
    "lng": 126.9832304
  },
  {
    "id": "703232",
    "name": "제이스팟",
    "category": "중식",
    "address": "경기도 성남시 분당구 판교역로 152",
    "menu": "basic set(Dinner),basic set(lunch),prime set(Dinner),prime set(lunch),가는당면,게살볶음밥,곱창,광동식 탕수육(M),광동식 탕수육(S),기네우치우동,김치,꼬치오뎅,납작당면,돼지고기,돼지고기 쇼마이,돼지고기(Dinner),돼지고기(lunch),두부모듬,두부피,똠양,레몬크림쉬림프(4pcs),레몬크림쉬림프(6pcs),마라,마라곱창전골,마라부대전골,마카롱 멘보샤(2pcs),마카롱 멘보샤(4pcs),모듬완자,몽골리안,미소,버섯모듬,베지테리언(Dinner),베지테리언(lunch),분모자,생선완자,소고기,소고기 & 해산물(Dinner),소고기 & 해산물(lunch),소고기 가지 튀김(4pcs),소고기 가지 튀김(6pcs),소고기(Dinner),소고기(lunch),수제고기완자,수제새우완자,수제양고기완자,숙주나물,쏘아차오판,씨푸드 슈프림(Dinner),씨푸드 슈프림(lunch),씨푸드 플래터(Dinner),씨푸드 플래터(lunch),아게다쉬 두부",
    "tel": "0316227179",
    "lat": 37.3942454,
    "lng": 127.1103068
  },
  {
    "id": "712426",
    "name": "알디프 티바",
    "category": "기타",
    "address": "서울특별시 마포구 와우산로35길 19",
    "menu": "1. 오늘의 차(1인),2&3. 티 베리에이션(택 2/1인),DDOR 1. 웰컴(1인),DOOR 2. 잭 오 랜턴(1인),DOOR 3. 산 도깨비(1인),DOOR 5. 마지막 관문(1인),고려, 1360(1인),내게 무해한 사람 by 최은영(1인),녹차, 백차, 우롱차(무드 포 러브),녹차, 백차, 우롱차(밀키 애프터이미지),녹차, 백차, 우롱차(서울의 달 그레이),논알콜 뱅쇼 에이드,논알콜 뱅쇼(HOT ONLY),달콤한 나랑 갈래,달콤한 나랑 갈래 비건 베리에이션,디어랄프로렌 by 손보미(1인),루이보스 블러디 메리,루이보스 블러디 메리 with 샷,루이보스 블러디 메리 with 샷(ICE ONLY/ADULT ONLY),루이보스 블러디 메리(ICE ONLY),르네상스, 1602(1인),메인 메뉴 주류 선택시,명(明), 1501(1인),벨벳 클라우드 밀크티,벨벳 클라우드 밀크티 with 위스키,벨벳 클라우드 밀크티 비건 베리에이션,비포 미드나잇(ADULT ONLY),샹들리에 레몬티(",
    "tel": "07077595033",
    "lat": 37.5558712,
    "lng": 126.9293963
  },
  {
    "id": "714606",
    "name": "작은부엌",
    "category": "기타",
    "address": "제주특별자치도 제주시 조천읍 선흘동2길 1",
    "menu": "비건채식풀코스",
    "tel": "01046993179",
    "lat": 33.5116888,
    "lng": 126.7058964
  },
  {
    "id": "718895",
    "name": "아이마미따",
    "category": "기타",
    "address": "전북특별자치도 전주시 완산구 전주객사1길 46-7",
    "menu": "1,1800(Bot.),1800(Shot),2,3,4,고수,과까몰레,과까몰레추가,께사디야베지,나쵸,노메디카,데낄라썬라이즈,데스뻬라도스,도스에끼스암버,도스엑끼스라거,듀량고(Bot.),듀량고(Shot),따꼬비건,떼까떼,또또뽀스살사,레드락,마르가리따,모히또(제철),미첼라다,볼칸베지,비스떽(Q/1인기준/150g),비스떽(T/1인기준/150g),비스떽(V/1인기준/150g),빠스또르(Q/1인기준),빠스또르(T/1인기준),빠스또르(V/1인기준),빨로마,삐꼬데가요,사이다,살사로하,슈퍼센세이,아구아데라야베,아구아로까,아메리카노,에델바이스,오르차따,조각추가(1조각당/최소2조각),차로네그로,쵸리소(Q/1인기준),쵸리소(T/1인기준),쵸리소(V/1인기준),코로나,코로나리따,콜라,하리또스(구아바),하리또스(라임),하리또스(망고),하리또스(자몽),하리또스(파인애플),하이네켄,하이네켄(3,000cc),할라빼뇨,호세꾸에르보(Bot.),호세꾸에르보(Shot)",
    "tel": "0632821585",
    "lat": 35.8185635,
    "lng": 127.1393985
  },
  {
    "id": "719214",
    "name": "아이마미따",
    "category": "기타",
    "address": "전북특별자치도 전주시 완산구 전주객사1길 46-7",
    "menu": "1,1800(Bot.),1800(Shot),2,3,4,고수,과까몰레,과까몰레추가,께사디야베지,나쵸,노메디카,데낄라썬라이즈,데스뻬라도스,도스에끼스암버,도스엑끼스라거,듀량고(Bot.),듀량고(Shot),따꼬비건,떼까떼,또또뽀스살사,레드락,마르가리따,모히또(제철),미첼라다,볼칸베지,비스떽(Q/1인기준/150g),비스떽(T/1인기준/150g),비스떽(V/1인기준/150g),빠스또르(Q/1인기준),빠스또르(T/1인기준),빠스또르(V/1인기준),빨로마,삐꼬데가요,사이다,살사로하,슈퍼센세이,아구아데라야베,아구아로까,아메리카노,에델바이스,오르차따,조각추가(1조각당/최소2조각),차로네그로,쵸리소(Q/1인기준),쵸리소(T/1인기준),쵸리소(V/1인기준),코로나,코로나리따,콜라,하리또스(구아바),하리또스(라임),하리또스(망고),하리또스(자몽),하리또스(파인애플),하이네켄,하이네켄(3,000cc),할라빼뇨,호세꾸에르보(Bot.),호세꾸에르보(Shot)",
    "tel": "0632821585",
    "lat": 35.8185635,
    "lng": 127.1393985
  },
  {
    "id": "729887",
    "name": "팜투하:녹",
    "category": "한식",
    "address": "경기도 수원시 팔달구 신풍로23번길 63-18",
    "menu": "bock 로제 쿠베 2020(로제와인),bock 샤도네이 2020(드라이화이트),bock 시라 2017(드라이레드),bock 카르베네쇼비뇽 2017(드라이레드),bock 카르베네프랑 2017(드라이레드),bock 포르타게자 2020(드라이레드),계란,그릴드베지 샐러드,글라스와인 레드(180ml),글라스와인 화이트(180ml),깜빠뉴 샌드위치,루꼴라애플샌드위치,리코타 샐러드,바게트샌드위치,부라타치즈 샐러드,새우 샐러드,새우오픈샌드위치,스테이크 샐러드,아보카도,아보카도 샐러드,연어 샐러드,연어오픈샌드위치,오렌지칵테일(토끼소주),치킨 샐러드,토마토모짜렐라 파니니,토마토바질오픈샌드위치,토마토바질칵테일(토끼소주),팜투그린 샐러드,풀드포크베리파니니(비건풀드포크),할라피뇨햄치즈 파니니,후무스",
    "tel": "01086548120",
    "lat": 37.2835094,
    "lng": 127.0113907
  },
  {
    "id": "730370",
    "name": "칙피스",
    "category": "양식",
    "address": "서울특별시 강남구 강남대로152길 69",
    "menu": "CATERING SET,OB 프리미어 생맥주,가지튀김,감자튀김,그릴드 슈림프,그릴드 슈림프 라이스,그릴드 슈림프 샐러드,램 미트 볼 샥슈카,램 케밥 미트 볼 라이스,램 케밥 미트 볼 샐러드,램 케밥 미트볼(5pcs),로스트 치킨,로스트 치킨 라이스,로스트 치킨 샐러드,베이컨 스테이크 라이스,베이컨 스테이크 샐러드,베이컨 스테이크 샥슈카,베이컨스테이크,부채살 스테이크,부채살 스테이크 라이스,부채살 스테이크 샐러드,비건 샐러드,비건 샥슈카,비건버거,슈림프 샥슈카,스파클링 에이드,슬로우 쿡 풀드 포크 라이스,슬로우 쿡 풀드 포크 샐러드,슬로우 쿡 풀드 포크 샥슈카,아메리카노(HOT),아메리카노(ICE),아보카도,아보카도 샐러드,연어 스테이크,연어 스테이크 라이스,연어 스테이크 샐러드,옐로우 라이스,오리지널 허무스,오믈렛버거,와인(Bottle),와인(Glass),차(HOT),차(ICE),치킨 샥슈카,치킨버거,캔맥주,클렌징주스,탄산음료,팔라펠 라이스,팔라펠(5pcs),풀드 포크,피타,허무스",
    "tel": "0269566780",
    "lat": 37.5191244,
    "lng": 127.0247332
  },
  {
    "id": "736091",
    "name": "쏭타이",
    "category": "기타",
    "address": "서울특별시 강남구 테헤란로39길 51",
    "menu": "1664블랑(450ml),1인 똠얌꿍 세트,1인 팟타이 세트,2인 세트,2인 추천세트,게란프라이,고수,공기밥,그린커리,까이팟맷마무어(기본),까이팟맷마무어(비건),꾸아이띠아오(닭고기),꾸아이띠아오(소고기),꾸아이띠아오팍,똠얌꿍(기본),똠얌꿍(비건),레몬그라스수프,모히또라임,뿌빳풍커리,삐여우완,사장님 추천세트,산미구엘(300ml),산미구엘(500ml),수박주스(땡모반),스윗마요,스윗비어(450ml),싱하(330ml),싸랏땡꾸아,쌀면,쏨탐(기본),쏨탐(비건),아메리카노,오렌지주스,진로(360ml),진토닉,참이슬 후레쉬(360ml),창(330ml),칠성사이다,코카콜라,타이거(330ml),타이밀크아이스티,타이스페셜세트,텃만꿍(4ea),팍붕화이뎅(기본),팍붕화이뎅(비건),팟씨유,팟카파오무쌉(기본),팟카파오무쌉(비건),팟타이(기본),팟타이(비건),피치크러쉬",
    "tel": "025540342",
    "lat": 37.5056843,
    "lng": 127.040272
  },
  {
    "id": "739116",
    "name": "어니언",
    "category": "카페",
    "address": "서울특별시 성동구 아차산로9길 8",
    "menu": "공주 밤 라떼,국화 차,귀리 우유 변경,딸기 요거트,로즈 에이드,로즈 티,문경 오미자 에이드,문경 오미자 티,밀크티,바닐라 라떼,방아꽃 차,비건 밀크티,샷 추가,싱글오리진 커피,쑥꽃 차,아메리카노,어니언 아인슈페너,어니언 크림 카푸치노,에스프레소,에스프레소 콘파냐,오틀리 라떼,차이 밀크티,초콜릿 드링크,카페 라떼,카페 모카,카푸치노,패션후르츠 에이드,패션후르츠 티,프레시 당근 쥬스,플랫 화이트",
    "tel": "07043533238",
    "lat": 37.5447609,
    "lng": 127.0581989
  },
  {
    "id": "740203",
    "name": "아각아각",
    "category": "기타",
    "address": "서울특별시 마포구 동교로25길 57",
    "menu": "계란추가,고렝 삐상,고렝 삐상 & 아이스크림,나시고렝 깜풍,나시고렝 크탐,나시르막,난(전통 빵),뇨냐 락사,다온크툼바(고수),드라이 카리 완탄 미,라이치,로작 부아(VEGAN),밀로다이노소어,비건 아이스크림 추가,비훈 고렝,비훈 숩 우타라,빠빠담(VEGAN),사모사(VEGAN),사이곤,사태 다깅,사태 템페(VEGAN),삼발소스,스프라이트,시러프리마우,아쌈 락사,아쌈 보이,아얌 고렝,아이스크림 추가,재스민라이스(공기밥),차 퀘이 티아우,치킨 카리,치킨라이스,커피 수수,커피 오,켈라파 & 나나스,코카콜라,코코넛라이스,타이거,테 오 아이스 리마우,테 타맄,트러고렝,환타",
    "tel": "023360402",
    "lat": 37.5592081,
    "lng": 126.9200095
  },
  {
    "id": "745632",
    "name": "노매딕 브루잉 컴퍼니",
    "category": "양식",
    "address": "전북특별자치도 전주시 완산구 전라감영3길 12-10",
    "menu": "갈릭포르마치,글램핑(크림에일),노메디카(드라이홉아이피에이),드림위버(어텀에일),마르게리따,마리나라(비건),미스터브라운(커피브라운에일),미시간더(아메리칸아이피에이),블랙벨트(코리안임페리얼스타우트),사과쥬스,세트A,세트B,수제감자튀김,애플시나몬티,콜드브루커피,트레일블레이저(인디아브라운에일),페스토루꼴라,페퍼로니,프로슈토루꼴라,해피캠피(아메리칸위트에일)",
    "tel": "0639023924",
    "lat": 35.8164388,
    "lng": 127.1437626
  },
  {
    "id": "750764",
    "name": "편한집밥",
    "category": "한식",
    "address": "부산광역시 북구 만덕3로 28-10",
    "menu": "두개장 정식,만두국 정식,버섯탕수(大),버섯탕수(小),비건 무알콜 맥주,비건 오징어 튀김(大),비건 오징어 튀김(小),연잎밥 정식,콩치킨(大),콩치킨(小),편한집밥 정식",
    "tel": "0515161488",
    "lat": 35.2114876,
    "lng": 129.0262475
  },
  {
    "id": "759246",
    "name": "누벨퀴진",
    "category": "기타",
    "address": "강원특별자치도 춘천시 동내면 외솔길19번길 71",
    "menu": "감자스프,구운 닭가슴살 샐러드,구운채소 통밀빵 샌드위치(비건),구운채소와 치킨 통밀빵 샌드위치,단호박 스프,당근 오렌지 클렌즈 주스,러스틱 빈 샐러드,레드비트주스,로스트치킨&로스트머쉬룸 샐러드,리얼레몬에이드,리코타치즈&로스트치킨 샐러드,삶은달걀,소스추가,수박주스(시즌한정),수제 로얄 밀크티,수제 오미자 에이드,수제 진저라떼(only hot),수제리코타,아메리카노,아보카도,아보카도 샌드위치,아보카도 오픈 샌드위치&보코치니 치즈 토마토 샐러드,아보카도 주스,아이스아메리카노,얼그레이,연어&아보카도 샐러드,자몽에이드,찐단호박,케일사과주스,크랜베리 치킨 샌드위치,타마고산도(예약),한살림 쑥 라떼(only hot),허니토마토주스,효모빵(2ea)",
    "tel": "0332637778",
    "lat": 37.8581107,
    "lng": 127.7576335
  },
  {
    "id": "759819",
    "name": "우부래도",
    "category": "베이커리",
    "address": "서울특별시 동작구 상도로37길 3",
    "menu": "100% 백미 식빵,100% 쑥 쌀식빵,100% 호밀빵 100g,100% 흑미 식빵,100%쌀 현미식빵,100%통밀빵,과일생크림케이크 1호,과일생크림케이크 2호,과일생크림케이크 3호,녹차 머핀,녹차단팥빵,녹차큐브,눈꽃초코,단호박머핀,단호박큐브,두부피자롤,딸기앙소보로,레몬 파운드케이크,맘모스빵,못난이 콩볼,미니 흑미 오렌지 카스텔라,미니브라우니,백미모닝 4개,뱅오쇼콜라,불맛채소빵,브라우니,뽕 스콘,생크림단팥빵,시나몬애플파이,쌀바케트,쑥치아바타,아몬드소보로,엘리게이터파이,오렌지 마들렌,와사비 치아바타,우리밀 식빵,인절미 스콘,인절미 쿠키,인절미크림빵(쌀빵),초코생크림딸기큐브,초코생크림케이크 1호,초코생크림케이크 2호,초코생크림케이크 3호,초코소라빵(쌀빵),초코칩,초코콕콕쌀식빵,쵸코 머핀,카카오 깜빠뉴 300g,코코넛 로쉐,코코넛크림단팥빵,코코넛크림빵,콘부래도,크로와상,크린베리 호두 깡뺴뉴,토종 앉은뱅이빵,통곡물 식빵,플레인스콘,현미치아바타,흑당 피칸쌀바게트,흑미 치아바타,흑미단팥빵,흑미",
    "tel": "07075430599",
    "lat": 37.5031717,
    "lng": 126.9486553
  },
  {
    "id": "765167",
    "name": "지금 여기가 맨 앞",
    "category": "양식",
    "address": "서울특별시 중구 을지로20길 16",
    "menu": "감바스,계절샐러드(비건),나물 듬뿍 파스타(저녁),다렌버그 스텀프 점프 소비뇽 블랑(bottle),다렌버그 스텀프 점프 소비뇽 블랑(glass),다우스 파인 토니 포트(스위트/bottle),더치커피,따뜻한 홍차,라 크라사드 블랙 까베르네 시라(bottle),라 크라사드 블랙 까베르네 시라(glass),라 크라사드 블랙 샤도네이(bottle),라 크라사드 블랙 샤도네이(glass),라 펠리시다드 보발(bottle),라 펠리시다드 보발(glass),라 펠리시다드 프리미엄 쿠파주(bottle),라 펠리시다드 프리미엄 쿠파주(glass),라구 떡볶이(저녁),레몬에이드,로제 크림 파스타(저녁),리브(비건/bottle),맨 앞 뇨끼(저녁),몬카로 스푸만테 베디치오(bottle),바질 크림 리조또(저녁),부르고뉴 피노누아 스크레드 파미(bottle),북어 알리오 올리오(저녁),빅웨이브,빵추가,사무엘 아담스,사이다,생맥주(테라),셰프 점심 특선(금요일/점심),셰프 점심 특선(목요일/점심),셰프 점",
    "tel": "01041083759",
    "lat": 37.5656837,
    "lng": 126.9952435
  },
  {
    "id": "765396",
    "name": "정김밥",
    "category": "기타",
    "address": "대전광역시 서구 둔산북로 22",
    "menu": "다이어트김밥,땡초추가,멸추김밥,묵은지김밥,묵참김밥,불고기김밥,비건김밥,정김밥,참치마요김밥,햄치즈김밥",
    "tel": "0427100777",
    "lat": 36.3555652,
    "lng": 127.3770687
  },
  {
    "id": "772774",
    "name": "리틀티가든",
    "category": "기타",
    "address": "울산광역시 울주군 상북면 신기길 50-1",
    "menu": "0g 바스크 치즈케이크,0g 쑥덕 와플,0g 퍼지 브라우니,과일주스(사과),과일주스(석류),과일주스(울산 배),그린 루이보스(H),그린 루이보스(I),대홍포(H),대홍포(I),딸기 덤불 산책(H),딸기 덤불 산책(I),루이 14세 밀크티(H),루이 14세 밀크티(I),리틀 바닐라 라떼,리틀 시크릿 코코아,리틀 캐러멜 크림,리틀티가든 샐러드,리틀티가든 파니니 플레이트(알프레도 크림 새우),리틀티가든 파니니 플레이트(이탈리안 토마토 햄),마리아 엘레나(H),마리아 엘레나(I),말차 아인슈티너,말차 초콜렛 브라우니,무설탕 딸기잼 추가,보조 찻데리(H),보조 찻데리(I),비건 가든 샐러드,아메리카노,아메리카노 디카페인,아이스크림추가,영남알프스 쑥 호지차(H),영남알프스 쑥 호지차(I),유기농 루이보스 밀크티(H),유기농 루이보스 밀크티(I),잎채소 샐러드,자몽 오미자 티에이드,제주 유기농 홍차(H),제주 유기농 홍차(I),카페라떼,칵테일 변경,클로티드 크림 추가,트로피컬 포레스트(H),트로",
    "tel": "0522116805",
    "lat": 35.6177852,
    "lng": 129.0738843
  },
  {
    "id": "779076",
    "name": "세자매바른빵",
    "category": "베이커리",
    "address": "부산광역시 부산진구 범양로120번길 6",
    "menu": "누룽지 얼그레이,시나몬 롤빵,야채식빵",
    "tel": "01083753816",
    "lat": 35.1736749,
    "lng": 129.065978
  },
  {
    "id": "787885",
    "name": "식빵굽는남자",
    "category": "베이커리",
    "address": "충청북도 음성군 맹동면 대하2길 17",
    "menu": "갈릭식빵,고구마크림치즈식빵,단호박식빵,데니쉬식빵,땅콩식빵,리얼초코식빵,먹물치즈식빵,모카식빵,바질롤치즈식빵,밤완두앙금식빵,블루베리식빵,생크림식빵,시나몬식빵,아몬드크림식빵,연유식빵,옥수수치즈식빵,인절미식빵,일반미니식빵,저당통단팥식빵,찰크림치즈식빵,페퍼로니식빵,햄치즈야채식빵",
    "tel": "01099956974",
    "lat": 36.9067213,
    "lng": 127.5432498
  },
  {
    "id": "803302",
    "name": "레스또란떼",
    "category": "양식",
    "address": "강원특별자치도 홍천군 화촌면 서울양양고속도로 84",
    "menu": "모짜렐라 치즈돈까스,비건식 샐러드,함박스테이크,화존왕돈까스,훈제닭가슴살 샐러드",
    "tel": "0334363000",
    "lat": 37.7572778,
    "lng": 128.0031929
  },
  {
    "id": "803849",
    "name": "일무레또",
    "category": "기타",
    "address": "서울특별시 강남구 논현로157길 33",
    "menu": "BISTECCA CON FUNGHI E FORMAGGIO 대,BISTECCA CON FUNGHI E FORMAGGIO 소,BREAD MIX LARGE,BREAD MIX SMALL,BURRATA &AFFOGATA&(premium salad),BURRATA,MORTADELLA,PISTACCHIO,CACIUCCO 대,CACIUCCO 소,CARCIOFI ALLA ROMANA,CHARCUTERIED BOARD,FONDUTA DI FORMAGGI E TARTUFO,HOME MADE BAKED POTATOES,LASAGNA ALLA BOLOGNSE,LINGUINE ALL,MARINATED CERIGNOLA OLIVES(비건),PEPERONATA E FETA AL FORNO 대,PEPERONATA E FETA AL FORNO 소,POLPO 대,POLPO 소,RUCOLA SALAD(비건),RUCOLA,PROSCIUTTO,SCAGLIE DI PARMIGIANO,TAGLIATELLE AL RAGU E ",
    "tel": "025400401",
    "lat": 37.5218166,
    "lng": 127.025528
  },
  {
    "id": "811811",
    "name": "진실롱",
    "category": "카페",
    "address": "서울특별시 영등포구 은행로 54",
    "menu": "size up,그린티라떼,달고나라떼,달고나우유,레몬민트티,리얼쑥라떼,리얼피치아이스티,마카롱10구세트,마카롱4구세트,마카롱_ICE포장,마카롱_선물포장,마카롱케이크,민트초코라떼,민트카페라떼,바닐라라떼,비건그라놀라,비건쿠키,비건파운드,생크림스콘,샷추가,선물용수제잼,선물용수제청,수제과일에이드(레몬),수제과일에이드(복숭아),수제과일에이드(자몽),수제과일에이드(청귤),수제과일차(레몬),수제과일차(복숭아),수제과일차(자몽),수제과일차(청귤),수제마카롱,아메리카노,에스프레소,연유라떼,옛날사라다샌드위치,유기농루이보스,유기농페퍼민트,초코라떼,카페라떼,카푸치노,티라미수,호박다이어트티,히비스커스아이스티",
    "tel": "050720935214",
    "lat": 37.5297624,
    "lng": 126.9245375
  },
  {
    "id": "816599",
    "name": "초량온당",
    "category": "베이커리",
    "address": "부산광역시 동구 초량중로 135",
    "menu": "녹차스콘,뉴욕치즈 크럼블,단호박 크럼블,당근 크럼블,르뱅쿠키,리얼 화이트 쿠키,마늘 러스크,마들렌,마약옥수수 타르트,모카쉬폰,브라우니 쿠키,브리오슈 식빵,비건 단호박 파운드,비건 쑥 파운드,쇼콜라 케이크(미니),시나몬 버터러스크,시나몬롤,시오빵,쌀식빵,쑥 치즈머핀,아몬드 비스코티,아몬드 크로와상,에그타르트,오레오 브라우니,옥수수 스콘,옥수수 치즈쿠키,초량 초코빵(초초빵),초코 청크 쿠키,초코스콘,초코타르트,코코넛 비스코티,코코넛 크로와상,쿠키슈,크로와상,크림치즈 베이글,크림치즈데니쉬,티라미수크로와상,홈런볼",
    "tel": "01021371271",
    "lat": 35.1234207,
    "lng": 129.041547
  },
  {
    "id": "818795",
    "name": "까페큔",
    "category": "카페",
    "address": "서울특별시 종로구 자하문로26길 17-2",
    "menu": "갸헝스(120ml),구운 채소와 비건 발효 버터 커리,구운 채소와 비건 발효 버터 커리(포장),국산 콩 낫또와 우메 페스토 발효 버섯,국산 콩 낫또와 우메 페스토 발효 버섯(포장),내츄럴 하이볼,돼지감자 스프(포장),바게뜨와 함꼐하는 돼지감자 스프,바냐카우다와 두 가지 채소,바냐카우다와 두 가지 채소(포장),바소테츠(120ml),발효토마토 그린샐러드 추가,봄나물 프리타타와 발효토마토 샐러드,봄나물 프리타타와 발효토마토 샐러드(포장),부르고뉴 샤도네(120ml),샌드위치,스파이스 발효 과일 샹그리아(160ml),어 섬 진토닉,작은 오늘의 스프 추가(120ml),큰 오늘의 스프 추가(220ml),템페와 유채 & 삼발 토마토 소스,템페와 유채 & 삼발 토마토 소스(포장)",
    "tel": "01087657560",
    "lat": 37.58471,
    "lng": 126.9722716
  },
  {
    "id": "819578",
    "name": "52푸드",
    "category": "카페",
    "address": "광주광역시 남구 봉선중앙로68번길 5",
    "menu": "52그래놀라볼,52요거트볼,꾸덕왕 그릭요거트 300g,레몬생강차 hot/t스파클링 에이드 ice,마다가스카,바나나 요거트볼,배도라지차 hot/스파클링 에이드 ice,베리 요거트볼,베리판타지,블루베리스무디,비건블랙라떼,비건오트라떼,아보카드스무디,애플망고스무디,애플시나몬 차 hot/스파클링 에이드 ice,코코야,패션후르츠(백향과)차 hot/스파클링 에이드 ice",
    "tel": "0626557373",
    "lat": 35.1272004,
    "lng": 126.9121113
  },
  {
    "id": "824033",
    "name": "꼼빠뇽베이커리",
    "category": "카페",
    "address": "부산광역시 동구 범곡로28번길 16",
    "menu": "갈릭롤치즈빵,녹차라떼,더치라떼,더치커피,레몬에이드,레몬티,무화과빵(비건),밀크티,밤식빵(비건),쑥식빵(비건),쑥팥빵(비건),아메리카노,아인슈페너,올리브치아바타(비건),우유들어간 아인슈페너,우유식빵,초코라떼,치아바타 에그샌드위치,치아바타(비건),치즈식빵,카페라떼,코코넛비스코티,크림치즈팥빵,탕종식빵(비건),통팥빵,통호밀빵(비건),패션블루 스무디,호두크랜베리빵(비건)",
    "tel": "01024253266",
    "lat": 35.1411548,
    "lng": 129.0557867
  },
  {
    "id": "824034",
    "name": "꼼빠뇽베이커리",
    "category": "베이커리",
    "address": "부산광역시 동구 범곡로28번길 16",
    "menu": "갈릭롤치즈빵,녹차라떼,더치라떼,더치커피,레몬에이드,레몬티,무화과빵(비건),밀크티,밤식빵(비건),쑥식빵(비건),쑥팥빵(비건),아메리카노,아인슈페너,올리브치아바타(비건),우유들어간 아인슈페너,우유식빵,초코라떼,치아바타 에그샌드위치,치아바타(비건),치즈식빵,카페라떼,코코넛비스코티,크림치즈팥빵,탕종식빵(비건),통팥빵,통호밀빵(비건),패션블루 스무디,호두크랜베리빵(비건)",
    "tel": "01024253266",
    "lat": 35.1411504,
    "lng": 129.0557862
  },
  {
    "id": "841470",
    "name": "로컬릿",
    "category": "양식",
    "address": "서울특별시 성동구 한림말길 33",
    "menu": "1+한우 채끝 스테이크(200g),가지 라자냐,마인 헤이즈 IPA,봉골레,부라타 토마토 샐러드,비건 바질 파스타,뽀모도로,새우리조또,시금치뇨끼,오미베리티,온더락 레몬에이드,유니언잭IPA,채소테린,초당 옥수수 뇨끼,코티지 파이,타르틴,한우 라구,한우 브라사또,한우 채끝 스테이크 리조또,호박 까넬로니",
    "tel": "0222821124",
    "lat": 37.5409414,
    "lng": 127.0147469
  },
  {
    "id": "841974",
    "name": "고추냉이식당",
    "category": "기타",
    "address": "제주특별자치도 제주시 애월읍 광령5길 8",
    "menu": "고추냉이 정식,그린 캐비어,끈적끈적 덮밥,끈적끈적덮밥,닭껍질 튀김,닭다리살 튀김,반반 카레,생치츠듬뿍 치즈까스,아보카도 연어장 덮밥,야채 고로케,연어장 덮밥,연어장덮밥,오리지널 카레,오크라낫또,왕새우 튀김,제주딱새우장 덮밥,제주흑돼지 겉바속촉 멘치까스,제주흑돼지 부드러운 등심돈까스,채식 카레,크림 카레,한라봉 마무침",
    "tel": "0647484145",
    "lat": 33.4612602,
    "lng": 126.4358022
  },
  {
    "id": "842993",
    "name": "마히나 비건 테이블",
    "category": "양식",
    "address": "서울특별시 강남구 논현로175길 75",
    "menu": "가지 구이 토마토 리소토,구운 두부 버섯 토마토 샐러드,그린 스페셜(1 Person),그릴드 파인애플 버거,그릴드 파인애플 피자,내추럴 바닐라 아이스크림과 아몬드 버터 크럼블,뉴욕 치즈 케이크와 유기농 크랜베리 콤포트,더블 미트 체다 치즈 버거,두부 버섯 샐러드 덮밥,떡갈비 버섯 샐러드 덮밥,레몬 파운드 케이크와 신선한 레몬 바닐라빈 크림,로마식 카르보나라 파스타,루꼴라 바질 페스토 파스타,루꼴라 바질 페스토 피자,모렐 크림 파스타,미트 파스타,미트볼 파스타,바질 페스토 파스타,버섯 바질 파스타,버섯 브로콜리 크림 파스타,버섯구이 치즈 리소토,버섯크림피자,베이컨 크림 빠네 파스타,병아리콩 썬드라이 토마토 샐러드,볼로네제 파스타,비건 디너롤(2oz),비건 슬라이스 치즈 추가,비건 초콜릿 트러플 1piece,비건 초콜릿 트러플(15pcs),비건 초콜릿 트러플(6pcs),비스크 로제 파스타,샹트렐 레몬 파슬리 파스타,수제 번 비프 버거,수제 번 치킨 버거,수제 피클,수제 피클(4piece",
    "tel": "07041055331",
    "lat": 37.5236567,
    "lng": 127.0230485
  },
  {
    "id": "853970",
    "name": "브라운 코트",
    "category": "일식",
    "address": "서울특별시 중구 퇴계로39길 19",
    "menu": "감바스 & 바게트 4조각,까살레 베끼오,나폴리탄,돈카츠(1pcs),드립커피,떼루아 앤 비뇨블 멜룻 & 쉬라,떼루아 앤 비뇨블 쇼비뇽 블랑,라무네,레드락 생맥주,레드스트라이프,멘치카츠(3pcs),면 변경,모지 리저브 쇼비뇽 블랑,모지 말보로 쇼비뇽 블랑,모지 말보로 피노누아,모지 쇼비뇽 블랑 펫낫,모지 피노누아 펫낫,무듬튀김과 양배추샐러드,베지카츠(5pcs),비건 카레,비스켓 & 바질페스토,사이다,새우튀김(2pcs),소주,야채믹스오일 파스타,야채스틱 & 소이마요,에디찌오네,엘 레시오,엘 피카로,온천계란,카레,콜라,트러플 감자튀김,표고버섯 깐풍기,하이라이트,하이볼(진저),하이볼(탄산),하이볼(토닉),화요 25도",
    "tel": "07088352989",
    "lat": 37.5622317,
    "lng": 126.9942305
  },
  {
    "id": "857733",
    "name": "오스트로한",
    "category": "양식",
    "address": "전북특별자치도 군산시 옥산면 남내안길 14",
    "menu": "굴라쉬,까수엘라 감바스,다크호스 까베르네 소비뇽,닭가슴살 샐러드,랍스타&안심 큐브 스테이크,레모네이드,루이보스 바닐라,마마루치아 피자,머쉬룸 파스타,명란 리조또,명란 파스타,반피 랄트라 바르베라 다스티,버드와이저,베어풋 피노누아,블러드오렌지 에이드,비건 샐러드,비냐 란자 틴토,비프 스트로가노프&라이스,산타 리타 트리플 C,산타 캐롤리나 에스트렐라 메를로,생연어 샐러드,생연어 플랫 브레드,생크림 요거트,생크림 크로플,쉬림프 페퍼로니피자,스프라이트,쌀눈 크림 치즈 리조또,알리오 올리오,양갈비 스테이크,얼그레이,연어 스테이크,오스트로한 에이드中,오스트로한 에이드大,청포도 에이드,치아바타,치킨스테이크,카프리,커피,콜라,포르토피노&바질리코,포비든 바인스 말보로 소비뇽블랑,프루티 디 마레,하우스 와인,하이네켄,호가든,휄레미뇽 안심 스테이크",
    "tel": "0634656870",
    "lat": 35.9411685,
    "lng": 126.7671078
  },
  {
    "id": "860963",
    "name": "잘빠진메밀",
    "category": "한식",
    "address": "서울특별시 종로구 자하문로11길 4",
    "menu": "3총사 모둠 감자전,감자전,강쇠,강원도감자전(260g),고기(150g)추가(유자에 빠진수육),고기듬뿍만두전골(1인),깊은맛막걸리샘플러5종,녹두당면(150g),느린마을 ,달큰한막걸리샘플러5종,려驪증류소주 25(75ml),마라맛추가,막걸리샘플러8종,막국수 수육정식(물/평일 점심),막국수 수육정식(비빔/평일 점심),만두 전골(4인),만두전골 2인+수육(소),만두전골 3인+수육(소)+전통주샘플러,만두전골(1인) 2인이상주문가능,만두전골(2인),만두전골(3인),맥주,메밀꽃 만두전골,메밀막국수(물),메밀막국수(물,비빔/300g),메밀막국수(비빔),메밀싹전병(메밀),메밀싹전병(해물),메밀왕만두,메밀왕만두국(동절기판매제품),메밀전병,모둠감자전(390g),사리추가(메밀면),사리추가150g(주문전),사리추가250g(주문후),사이다,삼겹양지추가(200g),새싹야채,소주,솔송주,송명섭,수육한접시(400g),순 메밀 채식 막국수,순메밀막국수(물 300g),순메밀막국수(비빔300g),순메밀수육정식(평일14시",
    "tel": "07041421214",
    "lat": 37.5796677,
    "lng": 126.9709809
  },
  {
    "id": "866009",
    "name": "셰발레리",
    "category": "양식",
    "address": "서울특별시 마포구 포은로 52",
    "menu": "Maple Glazed Pecans,Maple Pecan Pie ,마살라 차이 라떼,버섯 크림 감자 뇨끼,블랙 바닐라,비건 와인 콤보 (A),비건 와인 콤보 (A/Rose),비건 와인 콤보 (B),비건 와인 콤보 (B/Rose),비건미트소스 통밀 리가토니,비건와인 (레드/병),비건와인 (레드/잔),비건와인 (로제/병),비건와인 (로제/잔),샹피뇽 (3종 버섯)+시금치파스타,샹피뇽 피자,스텔라,시저 샐러드 (small size),유기농 스파클링 주스,카모마일 메들리,캐나다 드라이,캔디악 피자,콜드브루 몰라세스 라떼,콜드브루 블랙커피,콜드브루 소이라떼,클라우스탈러(무알콜),투메릭 진겨,피치 블로썸,히비스커스 베리",
    "tel": "0260130269",
    "lat": 37.5520665,
    "lng": 126.9069618
  },
  {
    "id": "869040",
    "name": "러브얼스",
    "category": "카페",
    "address": "부산광역시 수영구 광안로49번길 32-1",
    "menu": "감자 물냉이 샐러드,더치 라떼,더치 아메리카노,레드타이 커리,루이보스 바닐라티,무알콜 맥주,바질 페스토 크림파스타,복숭아&홍차 스무디,분다버그 자몽,분다버그 진저,비건 스파이시 버거+감자튀김,서리태 라떼,서리태 아이스 라떼,수박스무디,스트로베리 비건 밀크티,아쌈 비건 밀크티,제주 청귤 에이드,제주도 청귤 에이드,제주도 청귤차,폴드 머쉬룸 바베큐 샌드위치,핫초코 라떼",
    "tel": "07046472420",
    "lat": 35.1564219,
    "lng": 129.1185743
  },
  {
    "id": "870791",
    "name": "김면장",
    "category": "한식",
    "address": "부산광역시 수영구 수영로384번길 19",
    "menu": "(매콤)새우볶음밥,계란추가,과일소스샐러드비빔국수(채식),김면장김밥,냉국수,돼지고기김치볶음밥,땡초김밥,떡국,라면,매운불고기김밥,매콤아묵국수,목살김치볶음밥,목살스테이크,불낙덮밥,비빔국수,비빔밥(채식),새우김밥,소고기육전김밥,소불고기김밥,소불고기덮밥,스팸김밥,스팸덮밥,아보카도김밥,아보카도덮밥,아보카도덮밥(채식가능),야채김밥,야채볶음밥(채식),양념비빔국수,잔치국수,참치김밥,콩고기표고김밥,콩국수,크림치즈김밥(땡초),탕수육김밥,포두부채김밥,품절매콤콩고기표고덮밥(채식),훈제연어덮밥",
    "tel": "0516242223",
    "lat": 35.1401984,
    "lng": 129.1074925
  },
  {
    "id": "877830",
    "name": "하이타이",
    "category": "양식",
    "address": "서울특별시 용산구 한강대로7길 18-5",
    "menu": "고수 샐러드,고수 추가,고수 하이볼,공기밥,굴전,글라스 내추럴 와인,닥터페퍼,돼지고기 덮밥과 양상추,똠양꿍 누들,똠양꿍 스프,맥주(리오),맥주(싱하),맥주(창),맥주(타이거),모닝 글로리,바질볶음밥,백주 하이볼,비건 그린커리,비건 볶음 쌀국수,뿌님팟퐁커리,소고기 쌀국수,소이 칠리 치킨 라이스,쉬림프 라이스,스프라이트,쏨땀,콜라,콜라제로,크리미 그린커리,타이 치킨,타이밀크티,탄산수,팟씨유 치킨,팟키마오 콤보,팟타이 콤보,패션후르츠 에이드,항정살 구이,핸드릭스 진토닉",
    "tel": "01086110562",
    "lat": 37.5247983,
    "lng": 126.9620143
  },
  {
    "id": "879103",
    "name": "그릭팜",
    "category": "카페",
    "address": "서울특별시 종로구 종로 19",
    "menu": "그린팜,라이트베리,망고코코넛,베리베리,베이직볼,보늬밤,비건 변경,사과브라운,산타마을,아보카토,오렌지자몽,요거트 추가(한스쿱),토핑 따로 포장",
    "tel": "01026290441",
    "lat": 37.5708445,
    "lng": 126.9799237
  },
  {
    "id": "889983",
    "name": "타르틴",
    "category": "양식",
    "address": "서울특별시 용산구 한남대로18길 22",
    "menu": "갈비소스 차돌반미 샌드위치,그릭요거트와 그래놀라,그린 민트 티,그릴치즈 쪽파 샌드위치,그릴치즈 토마토 샌드위치,니스와즈 샐러드,당근 테프 케이크,데블스푸드 케이크,돼지 감자 트러플오일 포타주,라즈베리 레몬에이드,레드벨벳 크림치즈 케이크,레몬머랭 케이크(미니),레몬머랭 케이크(홀),렌틸 코코넛 커리스프(비건),루이보스 바닐라,마이너 피겨스 오트밀크,마칸 유디농 소다(레몬),마칸 유디농 소다(로즈),바닐라 라떼(HOT),바닐라 라떼(ICE),베이컨 에그 샌드위치,베지터블 샌드위치,브레드 앤 버터,아메리카노(HOT),아메리카노(ICE),애플 바나나 리치망고 주스,애플 피치 키위라임 주스,얼그레이,에스프레소,오렌지 블랙 티(ICE),오렌지블랙 티(HOT),오틀리 밀크 변경,오틀리 오트 드링크,오페라 케이크,우유(HOT),우유(ICE),초콜렛 라떼(HOT),초콜렛 라떼(ICE),초콜렛수플레 케이크(미니),초콜렛수플레 케이크(홀),치즈케이크(미니),치즈케이크(홀),치킨 시저샐러드,카페라떼(HO",
    "tel": "027922423",
    "lat": 37.5343932,
    "lng": 127.0085428
  },
  {
    "id": "891568",
    "name": "코앤텍스트",
    "category": "카페",
    "address": "인천광역시 동구 송림로 12",
    "menu": "깔루아 밀크,깔루아 카푸치노,두유 변경,라씨,라즈베리럼,레몬에이드,로파이 티,망고라씨,바닐라라떼,블랙러시안,블루베리 라떼,블루베리 레몬에이드,블루베리 레몬티,블루베리 콤부차,샤케라또,스모디보울(논비건),스무디보울(비건),아메리카노,월넛 초코칩,위스키 하이볼,진토닉,초코 마카다미아 쿠키,초콜릿 플레이트,치즈 플레이트,카페라떼,크림라떼,피넛버터프레즐(추가),흑임자",
    "tel": "01066169763",
    "lat": 37.4729875,
    "lng": 126.636685
  },
  {
    "id": "891576",
    "name": "마마그릭",
    "category": "기타",
    "address": "서울특별시 종로구 성균관로 21",
    "menu": "건무화과,그릭요거트 300g,그릭요거트 500g,닭가슴살,디저트 포장용기 추가,딥브라운,로얄골드,미주라 2개,바이올렛,버밀리안,벌집꿀 20g 추가,브론즈,비건샐러드,삶은계란,샐러드소스 추가,샐몬핑크,소스 포장용기 추가,스칼렛,스쿱추가,시즈널후르츠,씨에나,아보카도,엄버,에이프리코트,옐로우화이트,직화돈육,천연 벌꿀 스틱 한개,쵸코블랙,코코아브라운,패션오렌지,플레인요거트 250g,훈제연어",
    "tel": "07088442299",
    "lat": 37.5845239,
    "lng": 126.9971832
  },
  {
    "id": "893570",
    "name": "쏭타이",
    "category": "기타",
    "address": "서울특별시 용산구 이태원로20가길 7-2",
    "menu": "1664블랑(450ml),1인 똠양꿍 세트,1인 팟타이 세트,2인 추천세트,2인세트,가지튀김,계란프라이,고수,골드메달 스파클링 에플주스,공기밥,과일&치즈,그린커리(밥),김렛,까이팟맷마무어(기본),까이팟맷마무어(비건),꾸아이띠아오,꾸아이띠아오팍,나뚜라에 까베르네 소비뇽,나뚜라에 샤르도네,나바로 꼬레아스 알레고리아 말백,데땅져 리저브 브뤼,두르뜨 뉘메로 엥 보르도 루즈,똠양꿍(기본),똠양꿍(비건),라떼(hot),라떼(ice),레모 스퀴시,레몬그라스수프(밥),롱 아이랜드 아이스티,루이 페드리에 브뤼,마르께스 데 리스칼 레세르바,마티니,머드 하우스 소비뇽 블랑,메디치 에르메테 콘체르토,모멧 샹동 임페리얼,모히또라임,미오네토 프로세코 브뤼,발베니 12Y(btl/700ml),발베니 12Y(glass/45ml),발비 소프라니 모스카토 다스티,삐여우완,사장님 추천세트,산미구엘(300ml),산미구엘(500ml),산타헬레나 까베르네 소비뇽,산타헬레나 샤르도네,세구라 비우다스 레세르바 에레다드 브뤼,수",
    "tel": "027982495",
    "lat": 37.5337283,
    "lng": 126.9926816
  },
  {
    "id": "896397",
    "name": "슈릴리",
    "category": "카페",
    "address": "광주광역시 동구 용산3길 10",
    "menu": "딸기라떼,딸기레몬,딸기요거트스무디,레몬,레몬티,말차쉐이크,망고 패션후르츠,망고요거트스무디,바나나,바닐라라떼,바닐라밀크쉐이크,바스크 치즈케이크,블루베리레몬,블루베리요거트스무디,비건쿠키,샷 추가,수박,수제요거트(과일),수제요거트(수제청),수제요거트(후레이크),시럽 추가,아메리카노,아포카토,애스프레소,에그타르트,자몽,자몽티,잼추가,제주말차라떼,초코라떼,카라멜 마끼아또,카페라떼,카푸치노,커피쉐이크,크로플,키위,토마토,토마토 바질 스콘,파치츠 스콘,패션후르츠,플레인 스콘,플레인요거트스무디,허브티,헤이즐넛 아메리카노,휘낭시에",
    "tel": "0627107550",
    "lat": 35.1179604,
    "lng": 126.92547
  },
  {
    "id": "898957",
    "name": "로맨틱웨이브",
    "category": "카페",
    "address": "서울특별시 종로구 종로 19",
    "menu": "6종 쿠키,갸토 쇼콜라 케익,고구마라떼(겨울한정),녹차라떼,뉴욕치즈 라운드,다쿠아즈(뚱뚱바),다쿠아즈(로투스),다쿠아즈(말차),다쿠아즈(모카),다쿠아즈(초코 브라우니),다쿠아즈(초코링 얼그레이),다쿠아즈(흑임자),딸기 스무디,딸기라떼,딸기바나나,레몬 생강,레몬 스무디,레몬 캐모마일,레몬커드 라운드,로투스,루이보스,말차 가나슈,밀크티,바나나,바닐라빈라떼,복숭아 스무디,복숭아 에이드,브라운 치즈 크로플,비건 라떼,생강차,샷 추가,수제 레몬 에이드,수제 레몬차,수제 스트로베리 애플,수제 스트로베리 애플 에이드,수제 자몽 에이드,수제 자몽차,수제 크림 추가,시럽 추가,아메리카노,아몬드 크림 라떼,아이스크림 추가,아이스티,아일레스 유자,앙버터,에스프레소,연유 라떼,오레오,오레오 크림치즈 케익,유자 스무디,유자 에이드,유자차,자몽 스무디,자몽 허니블랙티,진한 더블 초코라떼,청포도 스무디,청포도 에이드,초코 브라우니,초코릿칩 얼그레이,초코바나나,카라멜 마끼아또,카페 모카,카페라떼,카푸치노,콜드브",
    "tel": "01033065585",
    "lat": 37.5708445,
    "lng": 126.9799237
  },
  {
    "id": "906025",
    "name": "리틀오스",
    "category": "한식",
    "address": "부산광역시 수영구 수영로510번길 42",
    "menu": "T2(레몬그라스&진저(디카페인)),T2(시드니 브랙퍼스트),T2(차이나 자스민),T2(차이라떼),가스파초) 초록 콩 민트 수프(V),그릴드 치즈 스택(IO),두유변경,라떼,롱블랙(아메리카노),마끼아또,말차스콘과 트리플베리잼&비건버터(V),모카,바나나브레드(V),바닐라,베이비치노,베이컨추가,샷추가,숏블랙,숲속 버섯 샌드위치(V),아보카도 온 토스트(O),아페롤 스프리츠(100%),오스커피,제스티 새우 샐러드,카푸치노,콜드블루,티라미수,패션후르츠에이드,페리페리 치킨 샌드위치,페리페리 치킨 샐러드,프렌치 토스트,플랫화이트,피콜로,핑크레몬에이드,햄 치즈 크루아상",
    "tel": "07087768111",
    "lat": 35.150741,
    "lng": 129.113755
  },
  {
    "id": "914456",
    "name": "소랑햄수다",
    "category": "카페",
    "address": "제주특별자치도 제주시 한림읍 일주서로 5673",
    "menu": "A.알콩크로플(더블),A.알콩크로플(싱글),B.달콩크로플(더블),B.달콩크로플(싱글),고메버터스콘,골드메달(사과),달콩 브라우니(더블),달콩 브라우니(미니),달콩 스팀식빵 set,딸기 퐁당 라떼(ICE),레몬에이드(ICE),레몬차,무알콜 하이볼,바나나쉐이크(ICE),바닐라라떼,바스크치즈케이크(1조각),분다버그(망고),분다버그(자몽),아메리카노,아이스크림 추가,아이스크림라떼(ICE),오스트리아 비건 음료,우도땅콩라떼(ICE),제주감귤라떼,제주감귤스콘,제주녹차라떼,초코달콤라떼,카페라떼,콜드브루,큐브연유라떼(ICE),크림라떼,플레인 크로플(싱글 1개),한라봉에이드(ICE),한라봉차,허브차(얼그레이),허브차(캐모마일),허브차(페퍼민트),허브차(히브스커스&체리),현무암 모카(ICE)",
    "tel": "01062353773",
    "lat": 33.4986739,
    "lng": 126.5202544
  },
  {
    "id": "923288",
    "name": "브라더한정식 도시락",
    "category": "기타",
    "address": "서울특별시 마포구 도화길 43",
    "menu": "VVIP한정식,VVIP한정식 GOLD,고급 전복 한정식,고기쌈밥,공깃밥,근육빵빵 소불고기,꿀삼겹 도시락,낙지볶음 가정식,남원맛집 오징어볶음,닭양념볶음,닭양념볶음 가정식,돼지두루치기 가정식,돼지야 낙지와 놀자,돼지와 두부의 궁합,든든한 도시락,떡갈비 어린이도시락,떡갈비와 샐러드는 연야중,매콤달콤 오징어볶음,명품 소불고기 한정식,생수,소불고기 어린이도시락,숯불제육 스페셜,시그니처 집밥,싱싱한 채식 도시락,알찬 닭양념,알찬 매콤낙지,알찬 소불고기,알찬 오징어볶음,알찬 제육,약선 한정식 도시락,엄마의 집밥,오렌지주스,제대로 된 도시락,제육&닭불고기,제육&제육볶음,제육덮밥,제육쌈밥,제육의 정석,종로식 소불고기,참치덮밥,참치치즈,치즈추가(덮밥류),컵과일,콘치즈 참치마요,탄산음료,토마토치즈제육,특선 장어 한정식,푸짐한 고기한상,힘이불끈 낙지볶음",
    "tel": "027048180",
    "lat": 37.5417888,
    "lng": 126.9502543
  },
  {
    "id": "924169",
    "name": "플랜티카(Plantica)",
    "category": "기타",
    "address": "서울특별시 용산구 녹사평대로54길 7",
    "menu": "건강발효뿌리차,돈가스버거,돈가스버거(Big),드랍더비트&자몽초,드랍더파인애플초,마들렌,몸이편안하게블렌딩티,바닐라라떼,버거_수제청과일에이드(오렌지레몬),버거_수제청과일에이드(자몽),버거_수제청과일에이드(청귤진저),불고기버거,불고기버거(Big),브라우니,블루베리애플스무디,비건핫초코&마시멜로우(HOT),생마스무디,스콘,스트로베리바나나스무디,아메리카노,에스프레소,유기농오렌지루이보스티,유기농캐모마일티,유기농페퍼민트,조각케이크,카페라떼,컵케이크,쿠키,크럼블바,트로피칼시금치스무디,파운드케이크,핫오리지널버거,핫오리지널버거(Big),홀케이크,홀파운드케이크,흑당버블티(ICED)",
    "tel": null,
    "lat": 37.5394038,
    "lng": 126.9877005
  },
  {
    "id": "924273",
    "name": "더순수브레드",
    "category": "베이커리",
    "address": "대구광역시 북구 침산로 153",
    "menu": "비건 100% 통밀빵,비건 밤쌀빵,비건 블루베리 쌀빵,비건 시나몬뱅 쌀빵,비건 씨앗호떡 쌀빵,비건 자색고구마 찹쌀 쌀빵,비건 크림 쌀빵",
    "tel": "01082901427",
    "lat": 35.8890266,
    "lng": 128.5897443
  },
  {
    "id": "926882",
    "name": "꼬타루",
    "category": "카페",
    "address": "경기도 남양주시 다산순환로 356",
    "menu": "ABC주스 정기구매(카운터 문의),ABC주스(사과+비트+당근 당0%),귀리라떼,녹차콩티,단호박라떼,딸기복숭아,딸기아몬드티(ice only),딸바,딸복,라벤더,로즈딸기,로즈몬(레몬),로즈몬(장미),로즈몬(제주청귤),로즈패션콤부차,로즈패션후르츠,모카콩라떼,바닐라콩라떼,복숭아,블루멜로우,블루멜로우(블루베리),블루멜로우(제주청귤),비건바질 파니니,비건불고기 파니니,쑥콩티,아메리카노,알밤라떼,오렌지(100%),오리지널,오미자에이드,인삼라떼,자몽,장미,장미콩티,제주쳥귤,청포도,초코,초코콩티,캐모힙(로즈힙),캐모힙(사과),캐모힙(캐모마일),케바,콩라떼,파니니&아이스아메리카노 SET,피나콜라다,햇고구마라떼,히비베리(오렌지),히비베리(크렌베리),히비베리(히비스커스),히비스커스,히비스커스콤부차",
    "tel": "0315653030",
    "lat": 37.6252012,
    "lng": 127.155394
  },
  {
    "id": "933096",
    "name": "기웃기웃",
    "category": "카페",
    "address": "서울특별시 성북구 아리랑로19길 13",
    "menu": "녹차라떼(HOT),녹차라떼(ICE),당근케익,디카페인 콜드브루(HOT),디카페인 콜드브루(ICE),레몬 에이드,레몬파운드케익,로즈마리(HOT),로즈마리(ICE),마스코바도 쿠키,마틸다케익,모카라떼(HOT),모카라떼(ICE),믹스 에이드 (택2) ,바닐라라떼(HOT),바닐라라떼(ICE),바스크치즈케익,보늬밤파운드케익,보틀 딸기우유,보틀 밀크티,블랙포레스트쿠키,비건바나나브레드 ,비엔나 라떼(HOT),비엔나 라떼(ICE),샷추가,석류 에이드,수제 레몬차(HOT),수제 레몬차(ICE),수제초코라떼(HOT),수제초코라떼(ICE),순우유 딸기케익,쑥라떼(HOT),쑥라떼(ICE),아메리카노(HOT),아메리카노(ICE),얼그레이 밀크티(HOT),얼그레이 밀크티(ICE),옥수수파운드케익,제주말차파운드케익,초코퍼지케익,카라멜라떼(HOT),카라멜라떼(ICE),카페라떼(HOT),카페라떼(ICE),카푸치노(HOT),카푸치노(ICE),캐모마일(HOT),캐모마일(ICE),캬라멜 추가,크림추가,토피넛라떼(HOT",
    "tel": "07086912721",
    "lat": 37.6024786,
    "lng": 127.012688
  },
  {
    "id": "942405",
    "name": "제주소녀",
    "category": "카페",
    "address": "제주특별자치도 제주시 구좌읍 비자숲길 21",
    "menu": "라떼(HOT),라떼(ICE),마르게리타 취나물 반반 피자,마르게리타 피자,비자림 모닝 주스,사과 루꼴라 샌드위치,쌍화차,아메리카노(HOT),아메리카노(ICE),어린이 유기농 코코아,어린이 유기농 코코아 콜드,오트밀크라떼(HOT),오트밀크라떼(ICE),유기농 호지티 아이스,제주 감자 치아바타,제주 유기농 호지티,제주노을 에이드,청한라봉차,취나물 페스토 피자,칭따오 무알콜,카프리제 샌드위치,콜라,클라우드 제로,한라봉 에이드",
    "tel": "07077387335",
    "lat": 33.4946044,
    "lng": 126.8116135
  },
  {
    "id": "943936",
    "name": "샐러디",
    "category": "기타",
    "address": "서울특별시 노원구 노해로 501",
    "menu": "견과류(비건),고추장머쉬룸 웜볼,곡물추가,그라운드미트,나쵸칩,단호박,두부(비건),두부크럼블(비건),드레싱 추가,라크로이 탄산수(키라임),라크로이 탄산수(패션후르츠),리코타,리코타치즈 샐러디,머쉬룸(비건),메밀면,멕시칸 랩,베이컨,블렌딩티(레몬진저/아이스),블렌딩티(레몬진저/핫),블렌딩티(루이보스 시나몬/아이스),블렌딩티(루이보스 시나몬/핫),사워클힘,생수,스윗포테이토,스프라이트제로,시저치킨 랩,시저치킨 샐러디,양송이 크림스프,양송이 크림스프(할인),양파(비건),양파플레이크,에그,에그베이컨 샌드,연어,연어 샐러디,오이(비건),오트밀라떼(아이스),오트밀라떼(핫),옥수수(비건),올리브(비건),우삼겹,우삼겹 웜랩,우삼겹 웜볼,우삼겹메밀면 샐러디,착즙주스(그린밀싹),착즙주스(옐로우클렌즈),착즙주스(오렌지당근),채소추가,치킨,치킨토마토 샌드,칙피(비건),칠리베이컨 웜랩,칠리베이컨 웜볼,칠리빈,코크제로,콘치즈 스프,콘치즈 스프(할인),콥 샐러디,크랜베리(비건),크랜베리그릭 랩,크리미연어 랩,크리",
    "tel": "029333286",
    "lat": 37.655219,
    "lng": 127.0635124
  },
  {
    "id": "945838",
    "name": "베이글 베이글 베이글",
    "category": "양식",
    "address": "광주광역시 동구 제봉로 102",
    "menu": "B.B.B 시그니처 라떼,갈릭,고추 &베이컨,구운 연어 샐러드,구운 포테이토 샐러드,기라델리 초콜릿 라떼,딸기(시즌),라떼,라임 민트,레몬,레몬 & 라임 올리브 숙성 생연어 샐러드,말차 슈페너,머쉬룸 수프,머쉬룸 어니언 베이글,메론,밀크,밀크 버터 수프,밀크버터 베이글,바닐라 라떼,바질,백향과,베이컨 뇨끼 수프,블랙퍼스트 베이글,블루베리,비건,비건 베이글,시금치 연어 베이글,시즌 과일 샐러드,아메리카노,아인슈페너,어니언,엑설런트 플랫화이트,잠봉뵈르 베이글,체리,코리안 불고기 비비큐 베이글,크림 수프,토마토 & 파프리카,포테이토 수프,피치 아이스티,흑임자 라떼",
    "tel": "01083727718",
    "lat": 35.1474237,
    "lng": 126.9221328
  },
  {
    "id": "948500",
    "name": "모노보라초",
    "category": "양식",
    "address": "서울특별시 서대문구 연희로15길 39",
    "menu": "Bar 다 박스,노더블딥,살치촌/초리소 변경,시그니쳐 더블,시그니쳐 싱글,시그니쳐 투게더,채식원숭이,하몽세라노 추가",
    "tel": "01026590501",
    "lat": 37.5691415,
    "lng": 126.9299549
  },
  {
    "id": "950837",
    "name": "카페피봇 요거트 샌드위치",
    "category": "카페",
    "address": "서울특별시 마포구 백범로 230",
    "menu": "계절 과일 요거트볼,과일 샐러드+호밀빵,국산쑥인절미요거트(150g),국산쑥인절미요거트(300g),그딸바,그릭요거트 샐러드+호밀빵,그망코 요거트볼,그블바 요거트볼,그에그 샌드위치,그크닭 샌드위치,그햄샌드위치,녹차 라떼,단호박샐러드,딸기요거트 스무디,레몬 에이드,망고후르츠 그릭요거트,민트초코그릭요거트(150g),민트초코그릭요거트(300g),밀크티,바닐라라떼,바삭고소 그레놀라(250g),블루베리요거트 스무디,비건두유그릭요거트(250g),비건두유그릭요거트(500g),수비드 닭가슴살 샐러드+호밀빵,쑥 라떼,아메리카노,알알이블루베리 그릭요거트(150g),알알이블루베리 그릭요거트(300g),애플망고 스무디,에그샐러드+호밀빵,오곡 라떼,자몽 에이드,카카오그레놀라(160g),카카오그레놀라(250g),카페라떼,크랜베리그래놀라(160g),크랜베리그래놀라(250g),플레인그릭요거트(250g),플레인그릭요거트(500g),햄치즈 샌드위치",
    "tel": "027174461",
    "lat": 37.5418192,
    "lng": 126.9550597
  },
  {
    "id": "951532",
    "name": "칙피스 신세계백화점",
    "category": "양식",
    "address": "서울특별시 중구 소공로 63",
    "menu": "가지튀김,감자튀김,그릴드쉬림프,그릴드쉬림프 라이스,그릴드쉬림프 샐러드,로스트치킨,믹스베리 히비스커스(hot),믹스베리 히비스커스(ice),부채살,부채살스테이크 라이스,부채살스테이크 샐러드,비건 샐러드,비건 샥슈카,비건버거,쉬림프 샥슈카,아메리카노(hot),아메리카노(ice),아보카도,아보카도 샐러드,옐로우라이스,오리지널 허무스,유기농 스파클링 에이드(ice),치킨 라이스,치킨 샐러드,치킨 샥슈카,치킨버거,카페라떼(hot),카페라떼(ice),카푸치노(hot),캐모마일 레몬그라스(hot),캐모마일 레몬크라스(ice),클렌징 주스(ice),탄산음료(ice),통구이 컬리플라워,팔라펠,팔라펠 라이스,페퍼민트 레몬(hot),페퍼민트 레몬(ice),피타 빵,허무스",
    "tel": "023101278",
    "lat": 37.560919,
    "lng": 126.980979
  },
  {
    "id": "953138",
    "name": "고소미부엌",
    "category": "한식",
    "address": "서울특별시 노원구 동일로 986",
    "menu": "100%치즈돈까스,간장새우덮밥,고구마치즈돈까스,고기추가(40g),고소미김밥,고소미돈까스,고소미떡볶이(M-L),고소미떡볶이(S-M),고소미야채김밥,고수추가,곤약추가,다이어트 곤약면 변경,다이어트곤약떡볶이(M-L),다이어트곤약떡볶이(S-M),다이어트닭가슴살베지롤,땡초추가,명란아보카도덮밥,명란아보카도돈까스김밥,베지돈까스,비건으로 변경,비엔나추가(5p),새우추가(2p),시그니처쫄면,아보카도 추가,아보카도스테이크덮밥,아보카도추가,언리미트채식김밥,연어뚱뚱이김밥말이(10p),연어뚱뚱이롤(10p),와사비추가,참치마요야채김밥,치즈추가,콩치킨채식김밥,키토베지롤,키토언리미트채식롤,키토참치베지롤,키토콩치킨채식롤,토핑추가(언리미트)",
    "tel": "0260822710",
    "lat": 37.6182161,
    "lng": 127.075912
  },
  {
    "id": "954799",
    "name": "스윗드오",
    "category": "카페",
    "address": "서울특별시 동작구 여의대방로54길 14",
    "menu": "견과디저트(120g/피칸),견과디저트(120g/호두),견과토핑(피칸),견과토핑(호두),과일라씨,과일토핑,그래놀라(100g/베리),그래놀라(100g/카카오),그래놀라(베리),그래놀라(카카오),그릭요거트 한통(두유/350g),그릭요거트 한통(우유/350g),꾸덕 그릭요거트(두유/110g),꾸덕 그릭요거트(우유/110g),뉴욕쿠키(오트밀),뉴욕쿠키(피넛버터),뉴욕쿠키(호두초코칩),뉴욕쿠키(화이트초코칩),로얄밀크티(두유),로얄밀크티(아몬드),로얄밀크티(우유),비스코티,티플라이 콤부차(6년근 인삼),티플라이 콤부차(무궁화꽃),티플라이 콤부차(유채꽃),파운드케이크(당근),파운드케이크(초코),파운드케이크(크림치즈),플레인 요거트(액상)",
    "tel": "07080643891",
    "lat": 37.5119228,
    "lng": 126.9267404
  },
  {
    "id": "956061",
    "name": "칙피스",
    "category": "양식",
    "address": "서울특별시 서초구 신반포로 176",
    "menu": "그릴드 슈림프 라이스,그릴드 슈림프 샐러드,램 케밥 미트볼 라이스,램 케밥 미트볼 샐러드,로스트 치킨 & 팔라펠 버거(2pcs),로스트 치킨 라이스,로스트 치킨 샐러드,베이컨스테이크 라이스,베이컨스테이크 샐러드,비건 라이스,비건 샐러드,슬로우 쿡 풀드 포크 라이스,슬로우 쿡 풀드 포크 샐러드,연어 스테이크 라이스,연어 스테이크 샐러드,풀드 포크 & 팔라펠 버거(2pcs)",
    "tel": "0234796101",
    "lat": 37.5039352,
    "lng": 127.002413
  },
  {
    "id": "956079",
    "name": "서오릉피자",
    "category": "기타",
    "address": "서울특별시 종로구 송월길 99",
    "menu": "12첩 콤비네이션(L),12첩 콤비네이션(R),L사이즈 변경,갈릭디핑소스,고구마무스(L),고구마무스(R),고구마크러스트,고르곤졸라 씬(L),고르곤졸라 씬(R),고추피클(50g),국민반반(L),국민반반(R),금(왕릉 불고기/L),꽉채운 페퍼로니(L),꽉채운 페퍼로니(R),꿀,단짠반반(L),단짠반반(R),리치골드크러스트,마약콘치즈(L),마약콘치즈(R),목(킹 쉬림프/L),베이컨 포테이토(L),베이컨 포테이토(R),베이컨(50g),베이컨치즈오븐스파게티,브로콜리(8조각),비건 콤비네이션(L),비건 콤비네이션(R),새우(8마리),서오릉갈비(L),서오릉갈비(R),세블락 소세지(12조각),수(꽉채운 페퍼로니/L),수제갈릭소스,수제할라피뇨소스,스모크 햄(50g),스파게티차림,스프라이트(1.25L),스프라이트(500ml),씬 도우,알로하크림새우 씬(L),알로하크림새우 씬(R),야심반반(L),야심반반(R),옥수수(50g),올리브(50g),왕릉 고추 불고기(L),왕릉 고추 불고기(R),왕릉 불고기(50",
    "tel": "027226111",
    "lat": 37.5708611,
    "lng": 126.9623523
  },
  {
    "id": "957890",
    "name": "러브이즈기빙 하트베어",
    "category": "카페",
    "address": "부산광역시 수영구 광남로 159",
    "menu": "감자 물냉이 샐러드,더치 라떼,더치 아메리카노,레드타이 커리,루이보스 바닐라티,무알콜 맥주,바질 페스토 크림파스타,복숭아&홍차 스무디,분다버그 자몽,분다버그 진저,비건 스파이시 버거+감자튀김,서리태 라떼,서리태 아이스 라떼,수박스무디,스트로베리 비건 밀크티,아쌈 비건 밀크티,제주 청귤 에이드,제주도 청귤 에이드,제주도 청귤차,폴드 머쉬룸 바베큐 샌드위치,핫초코 라떼",
    "tel": null,
    "lat": 35.1554767,
    "lng": 129.1182519
  },
  {
    "id": "960233",
    "name": "쁘라텟타이",
    "category": "기타",
    "address": "서울특별시 강남구 테헤란로21길 13",
    "menu": "그린커리(2人/치킨),그린커리(人/비건),까이팟멧마무어(비건),까이팟멧마무어(치킨),꾸아이띠아오(비건),꾸아이띠아오(소고기),꾸아이띠아오(치킨),땡모반,똠양꿍 세트,똠양꿍(면/비건),똠양꿍(면/새우),똠양꿍(면/치킨),똠양꿍(밥/비건),똠양꿍(밥/새우),똠양꿍(밥/치킨),비건세트,뽀삐아(4p),뿌팟퐁커리(2人),쁘라텟세트,삐여우완(비건),산미구엘(생),스프라이트,싱하,쏨탐(비건),쏨탐(일반),아메리카노,야채춘권(6p/비건),오렌지쥬스,진로,참이슬,처음처럼,카스,콜라,크렌베리쥬스,클라우드 생맥주,타이거,타이밀크티,타이세트,타이티,탄산수,텃만꿍(1box/8p),텃만꿍(1p),텃만꿍(4p),테라,파이황과(비건),팟끄라파오무쌉(비건),팟끄라파오무쌉(일반),팟타이 세트,팟타이(비건),팟타이(새우),팟타이(치킨),퐁카티,화요25도,화요25도 SET",
    "tel": "01048226717",
    "lat": 37.5011229,
    "lng": 127.0343319
  },
  {
    "id": "961071",
    "name": "카페스프라우츠",
    "category": "기타",
    "address": "강원특별자치도 강릉시 하평5길 17",
    "menu": "당근주스,라구 라자냐,레몬에이드,레몬차,루드베리,미니브리치즈(25g),미니샐러드(모짜렐라샐러드),바닐라라떼(HOT),바닐라라떼(ICE),버터포션(가염/10g),복숭아아이스티,비건 라자냐,사워도우빵과 버터(1인분),생강라떼,생오렌지 착즙주스,생오렌지+당근 주스,샷 추가,수제딸기잼,스윗마마,아메리카노(HOT),아메리카노(ICE),아인슈페너,알랭밀리아잼,애플주스,에스프레소(HOT),오늘의 스프,우유를 두유로 변경,이즈니버터(우염/50g),잠봉뵈르 바게트 샌드위치,잠봉에멘탈 바게트 샌드위치,카페라떼(HOT),카페라떼(ICE),카푸치노(HOT),콰트로치즈 치아바타 파니니,크림브륄레라떼,크림치즈(20g),클로티드크림,하몽모짜렐라 베이글 샌드위치",
    "tel": "01087161866",
    "lat": 37.771438,
    "lng": 128.9170355
  },
  {
    "id": "964451",
    "name": "커피임당",
    "category": "카페",
    "address": "서울특별시 영등포구 여의대방로 394",
    "menu": "녹차라떼,녹차샷라떼,당근케이크,더블치즈케이크,딸기요거트스무디,딸기크림치즈토스트,레드오렌지,레몬차,레몬파운드,말차쇼콜라케이크,말차스콘,말차파운드,망고요거트스무디,밀크크레이프,밀크티라떼,바닐라라떼,반반임당,번트치즈케이크,블루베리요거트스무디,비건 바나나 파운드,비건 호구마 파운드,비건 흑임자 인절미 크럼블,생강차,아메리카노,아이스티,아침임당,앗카야임당,얼그레이레몬스콘,얼그레이쇼콜라케이크,에그타르트,연유라떼,오곡라떼,오렌지에이드,오미자에이드,유자에이드,유자차,자몽에이드,자몽차,청포도에이드,초코 가나슈 파운드,초코라떼,초코스콘,카라멜마끼아또,카야토스트,카페라떼,카페모카,캐모마일,코코넛스무디,코코넛커피스무디,토피넛라떼,패션푸르츠에이드,페레로왕슈,페퍼민트,플레인스콘,플레인요거트스무디,한라봉홍차케이크,헤이즐넛라떼,흑임자 바스크 치즈케이크,흑임자파운드,히비스커스",
    "tel": "07080989755",
    "lat": 37.519391,
    "lng": 126.9327655
  },
  {
    "id": "966504",
    "name": "바리",
    "category": "기타",
    "address": "서울특별시 중구 서소문로 138",
    "menu": "4가지 샐러드,7가지 샐러드,곡물샐러드,그라나파다노 치즈,그래놀라,꿀,낫또,누들볼로 변경,달걀후라이,대추 한방티,두부쉐이크,라즈베리,마녀수프,멸치볶음,미네랄 워터,미소 새우볼,미소 에어프라이두부볼,바나나,방울토마토,병아리콩,브로콜리,블루베리,비건크림수프,산펠레그리노 자동,새우,새우 1/2,샐러드볼로 변경,소스추가,수비드닭가슴살,수비드닭가슴살 1/2,수제 땅콩버터,숙성연어,스모크 우삼겹,스모크 우삼겹 1/2,스파클링 애플쥬스,스파클링 워터,시나몬 한방티,아마씨드,아메리카노,아몬드,아보카도,아사이볼 과일토핑,아사이볼 씨앗토핑,애플쥬스,양파,에어프라이두부,에어프라이두부 1/2,연근피클,와사비 낫또볼,와사비 더블아보카도볼,와사비 수비드치킨볼,유기농 마마 에이드,유자 숙성연어볼,유자소스 변경,유자소스 추가,치아씨드,카카오닙스,카펠리니 파스타,카펠리니 파스타 1/2,코코넛파우더,퀴노아,타이 스모크우삼겹볼,파프리카,페퍼민트 한방티,햄프씨드,현미밥,현미밥 1/2",
    "tel": "023109593",
    "lat": 37.5636533,
    "lng": 126.976302
  },
  {
    "id": "967045",
    "name": "그로그로카페",
    "category": "카페",
    "address": null,
    "menu": "국화차,녹차라떼,단팥빵 세트,딸기요거트스무디,레몬에이드,바닐라라떼,블루베리요거트스무디,비건 녹차라떼,비건 바닐라라떼,비건 오곡라떼,비건 초코라떼,비건 카라멜마끼아또,비건 카페라떼,비건 카페모카,비건 카푸치노,비건 플랫화이트,샌드위치 세트,시나몬라떼,아메리카노,아인슈패너,얼그레이,에스프레소,에스프레소 콘파냐,오곡라떼,오렌지에이드,자몽에이드,초코라떼,카라멜마끼아또,카페라떼,카페모카,카푸치노,크림라떼,파이 세트,페퍼민트,플랫화이트,현미빵 세트",
    "tel": "01024793958",
    "lat": 37.4782566,
    "lng": 126.9515212
  },
  {
    "id": "967103",
    "name": "비건비거닝",
    "category": "카페",
    "address": "서울특별시 강남구 선릉로85길 6",
    "menu": "K-유기농 비건 시그니처 Gift Set,Set1,Set2,SLIM 차 (다이어트차),구례 라임차,데일리 건강 블렌딩 수제차,데일리 커피,디카페인 아메리카노,딸기 오트 라떼,라임 에이드,레몬 에이드,면역력에 좋은 차 (바이러스 예방·사멸),문경 오미자차,미네랄 워터,바닐라 오트 라떼,비건 버터 추가,시그니처 샌드위치,시그니처 샐러드,식물성 프로틴 쉐이크,아메리카노,에스프레소,오미자 에이드,오트 라떼,이시형 닥터 캐롯 면역 쥬스,제주 레몬차,제주 청귤차,제주 황금차,청귤 에이드,탄산수,팥 오트 쉐이크,황금 에이드,흑임자 오트 라떼",
    "tel": "027405060",
    "lat": 37.5030264,
    "lng": 127.0491089
  },
  {
    "id": "968336",
    "name": "베러초이스",
    "category": "카페",
    "address": "서울특별시 성동구 연무장5길 9-13",
    "menu": "단백빵빵 고식이섬유 식빵,단백빵빵 비건 마늘스틱,단백빵빵 비건 머핀,단백빵빵 비건 소보로 빵,단백빵빵 비건 시나몬 롤,단백빵빵 비건 앙금빵,단백빵빵 야채 비건 모닝빵,단백빵빵바게트",
    "tel": "07077732018",
    "lat": 37.5441851,
    "lng": 127.0521032
  },
  {
    "id": "969396",
    "name": "봄",
    "category": "한식",
    "address": "울산광역시 남구 삼산로77번길 10",
    "menu": "고기만두,김치김밥,뉴욕핫도그,닭가슴살 샌드위치,라면,매운어묵김밥,매운참치마요김밥,맥주,모닝샌드위치(3개),미니 크로와상 샌드위치(2개),박유부김밥,반반 한끼 셋트,봄김밥,봄셋트 도시락,비건김밥,비빔국수,소주,수제 등심 돈까스,싱글 도시락(1인~2인),아메리카노,아이스 아메리카노,에그 샌드위치,유부초밥,음료수(사이다),음료수(콜라),잔치국수,제육김밥,쫄면,참치마요김밥,치즈 돈까스,커플도시락(2인~3인),크래미 샌드위치,크로와상 샌드위치,해장라면,햄치즈 샌드위치",
    "tel": "0529330808",
    "lat": 35.535375,
    "lng": 129.316037
  }
]