[
  {
    "id": "108806",
    "name": "한과채밥집",
    "category": "한식",
    "address": "서울특별시 종로구 인사동10길 13",
    "menu": "채식뷔페 1인",
    "tel": "027202802",
    "lat": 37.5743434,
    "lng": 126.9857216
  },
  {
    "id": "171881",
    "name": "알랭",
    "category": "기타",
    "address": "광주광역시 동구 동명로20번길 17-6",
    "menu": "디저트 추가,소라 에스카르고 추가,알랭코스,어니언 스프 추가,채식 코스,클래식코스",
    "tel": "0622282345",
    "lat": 35.1507488,
    "lng": 126.9255986
  },
  {
    "id": "178224",
    "name": "토목수",
    "category": "한식",
    "address": "전라북도 전주시 덕진구 구총목로 31",
    "menu": "동지팥죽,만두,바지락,붉은수제비,소바,소바,콩국수_면사리(1인분),수제비,옛날칼국수(1인분),채식보리비빔밥,콩국수,팥칼국수,흑임자칼국수(2인분이상)",
    "tel": "0632415060",
    "lat": 35.828518,
    "lng": 127.1634243
  },
  {
    "id": "178528",
    "name": "남한산성 하루채",
    "category": "한식",
    "address": "전북특별자치도 익산시 무왕로7길 34",
    "menu": "채식두부정식",
    "tel": "0638559102",
    "lat": 35.9612062,
    "lng": 126.9702572
  },
  {
    "id": "287400",
    "name": "워터스트리트",
    "category": "양식",
    "address": "서울특별시 용산구 회나무로13가길 3-9",
    "menu": "계절과일주스,드립커피,딸기만 넣은 우유,라임이탈리안소다,레몬에이드,핫레몬차,로얄 밀크티,바닐라라떼,아이스스윗시나몬카페폼,아이스크림+카카오소스,아포가토,애플블렌딩,얼그레이,에스프레소,에스프레소 온탑,오늘의 물길커피,오늘의 물길커피 점보,오트카피라떼-비건라떼,우유,유기농말차라떼,잉글리쉬블랙퍼스트,조리퐁 프라페,카모마일,카페라떼,카페모카,카페오레,코코아메리카노,토디아이스-콜드브루,토디아이스라떼,토디커피프라페,티에이드,페퍼민트,플랫 화이트,핫라임차,핫초코,아이스초코,핫카푸치노",
    "tel": "027200789",
    "lat": 37.5410832,
    "lng": 126.9898859
  },
  {
    "id": "301072",
    "name": "러빙헛",
    "category": "기타",
    "address": "전북특별자치도 전주시 완산구 감나무로 61-13",
    "menu": "비건 버핏(중학생 이상),비건 버핏(초등학생),도시락포장",
    "tel": "0632248929",
    "lat": 35.83176,
    "lng": 127.1184149
  },
  {
    "id": "330903",
    "name": "뜰안채채식뷔페",
    "category": "한식",
    "address": "경기도 용인시 기흥구 용구대로2335번길 25",
    "menu": "5~7세,보리빵(500g),울김치(1450g),잡채(550g),중학생~성인,초등학생,현미밥(550g),호박죽(흑임자/600g)",
    "tel": "0312815879",
    "lat": 37.2967316,
    "lng": 127.1076734
  },
  {
    "id": "454383",
    "name": "산들",
    "category": "기타",
    "address": "충청남도 천안시 동남구 각원사길 150",
    "menu": "채식 뷔페(성인),채식 뷔페(유아),채식 뷔페(초등학생)",
    "tel": "0415585500",
    "lat": 36.8314203,
    "lng": 127.1870353
  },
  {
    "id": "544541",
    "name": "들밥상",
    "category": "한식",
    "address": "경상북도 상주시 왕산로 22",
    "menu": "돌솥비빔밥정식,된장찌개정식,순두부맑은탕정식(매운맛),순두부맑은탕정식(순한맛),순두부버섯전골(매운맛/大),순두부버섯전골(매운맛/小),순두부버섯전골(순한맛/大),순두부버섯전골(순한맛/小),청국장정식",
    "tel": "0545341781",
    "lat": 36.4064706,
    "lng": 128.1615345
  },
  {
    "id": "580509",
    "name": "마지",
    "category": "양식",
    "address": "서울특별시 종로구 자하문로5길 19",
    "menu": "구절판코스,끼니올림,도담두부,들깨미역국,들깨수제비,런치·디너세트,마지비빔밥,배냉면,버섯덮밥,신선로코스,알천코스,연밥올림,오늘의마지(연밥),오늘의마지(현미·기장),우엉잡채밥,호두만두국,호박죽",
    "tel": "025365228",
    "lat": 37.57761,
    "lng": 126.9708053
  },
  {
    "id": "597688",
    "name": "잘빠진메밀",
    "category": "한식",
    "address": "서울특별시 종로구 율곡로8길 73",
    "menu": "100% 메밀전,3총사 모둠 감자전,강쇠,강원도 감자전(2장),강원도감자전(260g),고기(150g)추가(유자에 빠진수육),고기듬뿍만두전골(1인),깊은맛막걸리샘플러5종,녹두당면(150g),느린마을 ,달큰한막걸리샘플러5종,려驪증류소주 25(75ml),마라맛추가,막걸리샘플러8종,막국수(물),막국수(비빔),만두국한상(만두국+전병2조각+수육2점+메밀면50g),만두전골(1인),만두전골(2인),만두전골(3인),만두전골(4인),만두전골2인+막걸리샘플러8가지,만두전골3인+수육(소),맥주,메밀 왕만두,메밀꽃 만두전골,메밀막국수(물,비빔/300g),메밀싹전병(메밀),메밀싹전병(해물),메밀왕만두(4P),메밀왕만두국,메밀전병,모둠감자전(390g),모둠감자전(녹두,부추,감자3총사 390g),사리추가(메밀),사리추가150g(주문전),사리추가250g(주문후),사이다,삼겹양지추가(200g),새싹야채,소주,솔송주,송명섭,수육한접시(400g),순메밀 채식 막국수,순메밀막국수(물300g),순메밀막국수(비빔300g),",
    "tel": "07041131214",
    "lat": 37.5740314,
    "lng": 126.9914913
  },
  {
    "id": "626196",
    "name": "카페 썬",
    "category": "카페",
    "address": "서울특별시 마포구 동교로17안길 51",
    "menu": "두유들깨버섯파스타,두유현미떡국,베지터블스튜,병아리콩현미밥샐러드,제철채소토마토소스파스타,현미단호박수프,현미된장자장덮밥",
    "tel": "023368457",
    "lat": 37.556572,
    "lng": 126.9187623
  },
  {
    "id": "642532",
    "name": "필디스모먼트",
    "category": "카페",
    "address": "경기도 수원시 권선구 정조로495번길 7-9",
    "menu": "비건 바나나 브레드(통밀/no오일),비건 병아리콩 르뱅쿠키(통밀),비건 스콘 7종(통밀/말차),비건 스콘 7종(통밀/쑥),비건 스콘 7종(통밀/얼그레이),비건 스콘 7종(통밀/자색고구마),비건 스콘 7종(통밀/초코),비건 스콘 7종(통밀/플레인),비건 스콘 7종(통밀/흑임자),비건 쑥 파운드,비건&글루텐프리 초코머핀(쌀),비건&글루텐프리 쿠키(쌀/쑥),비건&글루텐프리 쿠키(쌀/얼그레이),비건&글루텐프리 쿠키(쌀/초코),비건호두파이(통밀),프릳츠 원두(올드독 블렌드)",
    "tel": "0312360908",
    "lat": 37.2529876,
    "lng": 127.0109167
  },
  {
    "id": "652791",
    "name": "오라운트",
    "category": "카페",
    "address": "경기도 광주시 양벌로 320-4",
    "menu": "귀리 우유 변경,딸기라떼,라떼,루이보스 바닐라,루이보스아몬드밀크티,모카,바닐라 빈 라떼,바질 크로글(17시까지),바질 크림치즈(17시까지),블루베리 크림치즈(17시까지),비건 라떼,살라미크림치즈 크로글(17시까지),생과일 오렌지 주스,스트로베리 크림치즈(17시까지),쑥 크로글(17시까지),아메리카노,아인슈페너,아포가토,앙크 크림치즈(17시까지),어니언 크림치즈(17시까지),오늘의 커피,오늘의 크로글(17시까지),오늘의 핸드 드립 커피,오라운트 아이스티,원두 디카페인 추가,인어공주 에이드,자색고구마 크로글(17시까지),잠봉뵈르 크로글(17시까지),제주 녹차라떼,초코 멜로우,치즈 크로글(17시까지),커리부어스트 크로글(17시까지),콜드브루(UND블렌드),크랩 크로글(17시까지),패션 베리 에이드,페폴버거(17시까지),플레인 크로글(17시까지),플레인 크림치즈(17시까지),후르츠드림",
    "tel": "0317623793",
    "lat": 37.3713369,
    "lng": 127.2463751
  },
  {
    "id": "660941",
    "name": "날일달월",
    "category": "한식",
    "address": "서울특별시 광진구 아차산로78길 7",
    "menu": "가시오가피 발효차,감잎차,계절과일,녹즙 아침진지,두부김치,마른안주,막걸리,맥주,빛소금 병,빛소금 생활,빛소금 선물,빛소금 양치,생강차,생과일 계절음료,생채식 진지,소주,아름농원 포도즙,아티커피,야채소면,오행현미(1kg),오행현미(kg),오행현미죽 진지,와인(마디랑),와인(아라미스),유기농 과일즙(사과),유기농 과일즙(사과+포도),유기농 과일즙(포도),장흥 무산김,콩물,함씨네 두부,함씨네 콩물,훈제 닭가슴살 샐러드",
    "tel": "024570102",
    "lat": 37.5503756,
    "lng": 127.1092971
  },
  {
    "id": "674756",
    "name": "빵어니스타",
    "category": "베이커리",
    "address": "서울특별시 강남구 도산대로25길 43",
    "menu": "단호박모찌타르트,말차 파운드,말차라떼,말차쉐이크,말차쌀브라우니,말차타르트,바질두부케이크,반반 브라우니,비건 다크초콜릿 스트로베리,비건 다크초콜릿 현미크런치,아메리카노,오트밀라떼,초코 타르트,초코라떼,초코쉐이크,초코쌀브라우니,코코넛스무디커피,콩두부케이크,흑임자두부케이크",
    "tel": "025467768",
    "lat": 37.5223249,
    "lng": 127.025825
  },
  {
    "id": "680513",
    "name": "마르뜨",
    "category": "기타",
    "address": "서울특별시 마포구 포은로 106-1",
    "menu": "녹차 라떼,녹차 빙수,녹차 카페라떼,딸기 녹차 빙수,딸기 핑크 빙수,레인보우 치즈 빙수,로즈플라워,망고 치즈 빙수,모카치노 핫,미니 호두 타르트,바닐라 카페라떼,블루베리 빙수,비건 팥빙수,석류 에이드,쇼콜라,수플레 치즈,스윗 밀크티,스트로베리,아메리카노,얼그레이,에스프레소,자몽 에이드,죠리퐁 팥빙수,초코 라떼,초코 티라미수 케이크,카페라떼,카페모카,카푸치노,칵테일 준벅 빙수[19금],캐러멜 마끼아또,캔 젤라또 아포가토,커피 빙수,커피 세트,토핑 팥추가,트로피칼 홍차,패션 푸르트 에이드,페퍼민트,허브티 세트,히비스커스",
    "tel": "01026383442",
    "lat": 37.5565584,
    "lng": 126.9048206
  },
  {
    "id": "698825",
    "name": "구구리제빵소",
    "category": "베이커리",
    "address": "경상북도 영주시 대학로262번길 32",
    "menu": "곡물깜빠뉴(저온숙성 천연쌀발효),모닝빵(저온숙성)(1봉 12개),무화과 현미바게트(저온숙성),미니 파운드케이크(1묶음(4개)),미니카스테라(50g,1개),밤식빵(저온숙성 천연쌀발효빵),비건시 두부 브레드(저온숙성 천),비건식 현미찹쌀깜빠뉴(저온숙),오곡쿠키,우리밀 통밀로 만든 부드러운 통,우유식빵(저온숙성 천연쌀발효),잡곡식빵(저온숙성 천연쌀발효),치즈식빵(저온숙성 천연쌀발효),치즈쌀모닝빵(저온숙성 천연쌀),카스테라(1개/370g),타워잡곡깜빠뉴(저온숙선 천연),현미식빵(저온숙성 쌀발효빵)",
    "tel": "0546329920",
    "lat": 36.8183472,
    "lng": 128.6084043
  },
  {
    "id": "712426",
    "name": "알디프 티바",
    "category": "기타",
    "address": "서울특별시 마포구 와우산로35길 19",
    "menu": "1. 오늘의 차(1인),2&3. 티 베리에이션(택 2/1인),DDOR 1. 웰컴(1인),DOOR 2. 잭 오 랜턴(1인),DOOR 3. 산 도깨비(1인),DOOR 5. 마지막 관문(1인),고려, 1360(1인),내게 무해한 사람 by 최은영(1인),녹차, 백차, 우롱차(무드 포 러브),녹차, 백차, 우롱차(밀키 애프터이미지),녹차, 백차, 우롱차(서울의 달 그레이),논알콜 뱅쇼 에이드,논알콜 뱅쇼(HOT ONLY),달콤한 나랑 갈래,달콤한 나랑 갈래 비건 베리에이션,디어랄프로렌 by 손보미(1인),루이보스 블러디 메리,루이보스 블러디 메리 with 샷,루이보스 블러디 메리 with 샷(ICE ONLY/ADULT ONLY),루이보스 블러디 메리(ICE ONLY),르네상스, 1602(1인),메인 메뉴 주류 선택시,명(明), 1501(1인),벨벳 클라우드 밀크티,벨벳 클라우드 밀크티 with 위스키,벨벳 클라우드 밀크티 비건 베리에이션,비포 미드나잇(ADULT ONLY),샹들리에 레몬티(",
    "tel": "07077595033",
    "lat": 37.5558712,
    "lng": 126.9293963
  },
  {
    "id": "714606",
    "name": "작은부엌",
    "category": "기타",
    "address": "제주특별자치도 제주시 조천읍 선흘동2길 1",
    "menu": "비건채식풀코스",
    "tel": "01046993179",
    "lat": 33.5116888,
    "lng": 126.7058964
  },
  {
    "id": "759819",
    "name": "우부래도",
    "category": "베이커리",
    "address": "서울특별시 동작구 상도로37길 3",
    "menu": "100% 백미 식빵,100% 쑥 쌀식빵,100% 호밀빵 100g,100% 흑미 식빵,100%쌀 현미식빵,100%통밀빵,과일생크림케이크 1호,과일생크림케이크 2호,과일생크림케이크 3호,녹차 머핀,녹차단팥빵,녹차큐브,눈꽃초코,단호박머핀,단호박큐브,두부피자롤,딸기앙소보로,레몬 파운드케이크,맘모스빵,못난이 콩볼,미니 흑미 오렌지 카스텔라,미니브라우니,백미모닝 4개,뱅오쇼콜라,불맛채소빵,브라우니,뽕 스콘,생크림단팥빵,시나몬애플파이,쌀바케트,쑥치아바타,아몬드소보로,엘리게이터파이,오렌지 마들렌,와사비 치아바타,우리밀 식빵,인절미 스콘,인절미 쿠키,인절미크림빵(쌀빵),초코생크림딸기큐브,초코생크림케이크 1호,초코생크림케이크 2호,초코생크림케이크 3호,초코소라빵(쌀빵),초코칩,초코콕콕쌀식빵,쵸코 머핀,카카오 깜빠뉴 300g,코코넛 로쉐,코코넛크림단팥빵,코코넛크림빵,콘부래도,크로와상,크린베리 호두 깡뺴뉴,토종 앉은뱅이빵,통곡물 식빵,플레인스콘,현미치아바타,흑당 피칸쌀바게트,흑미 치아바타,흑미단팥빵,흑미",
    "tel": "07075430599",
    "lat": 37.5031717,
    "lng": 126.9486553
  },
  {
    "id": "765167",
    "name": "지금 여기가 맨 앞",
    "category": "양식",
    "address": "서울특별시 중구 을지로20길 16",
    "menu": "감바스,계절샐러드(비건),나물 듬뿍 파스타(저녁),다렌버그 스텀프 점프 소비뇽 블랑(bottle),다렌버그 스텀프 점프 소비뇽 블랑(glass),다우스 파인 토니 포트(스위트/bottle),더치커피,따뜻한 홍차,라 크라사드 블랙 까베르네 시라(bottle),라 크라사드 블랙 까베르네 시라(glass),라 크라사드 블랙 샤도네이(bottle),라 크라사드 블랙 샤도네이(glass),라 펠리시다드 보발(bottle),라 펠리시다드 보발(glass),라 펠리시다드 프리미엄 쿠파주(bottle),라 펠리시다드 프리미엄 쿠파주(glass),라구 떡볶이(저녁),레몬에이드,로제 크림 파스타(저녁),리브(비건/bottle),맨 앞 뇨끼(저녁),몬카로 스푸만테 베디치오(bottle),바질 크림 리조또(저녁),부르고뉴 피노누아 스크레드 파미(bottle),북어 알리오 올리오(저녁),빅웨이브,빵추가,사무엘 아담스,사이다,생맥주(테라),셰프 점심 특선(금요일/점심),셰프 점심 특선(목요일/점심),셰프 점",
    "tel": "01041083759",
    "lat": 37.5656837,
    "lng": 126.9952435
  },
  {
    "id": "779076",
    "name": "세자매바른빵",
    "category": "베이커리",
    "address": "부산광역시 부산진구 범양로120번길 6",
    "menu": "누룽지 얼그레이,시나몬 롤빵,야채식빵",
    "tel": "01083753816",
    "lat": 35.1736749,
    "lng": 129.065978
  },
  {
    "id": "816599",
    "name": "초량온당",
    "category": "베이커리",
    "address": "부산광역시 동구 초량중로 135",
    "menu": "녹차스콘,뉴욕치즈 크럼블,단호박 크럼블,당근 크럼블,르뱅쿠키,리얼 화이트 쿠키,마늘 러스크,마들렌,마약옥수수 타르트,모카쉬폰,브라우니 쿠키,브리오슈 식빵,비건 단호박 파운드,비건 쑥 파운드,쇼콜라 케이크(미니),시나몬 버터러스크,시나몬롤,시오빵,쌀식빵,쑥 치즈머핀,아몬드 비스코티,아몬드 크로와상,에그타르트,오레오 브라우니,옥수수 스콘,옥수수 치즈쿠키,초량 초코빵(초초빵),초코 청크 쿠키,초코스콘,초코타르트,코코넛 비스코티,코코넛 크로와상,쿠키슈,크로와상,크림치즈 베이글,크림치즈데니쉬,티라미수크로와상,홈런볼",
    "tel": "01021371271",
    "lat": 35.1234207,
    "lng": 129.041547
  },
  {
    "id": "818795",
    "name": "까페큔",
    "category": "카페",
    "address": "서울특별시 종로구 자하문로26길 17-2",
    "menu": "갸헝스(120ml),구운 채소와 비건 발효 버터 커리,구운 채소와 비건 발효 버터 커리(포장),국산 콩 낫또와 우메 페스토 발효 버섯,국산 콩 낫또와 우메 페스토 발효 버섯(포장),내츄럴 하이볼,돼지감자 스프(포장),바게뜨와 함꼐하는 돼지감자 스프,바냐카우다와 두 가지 채소,바냐카우다와 두 가지 채소(포장),바소테츠(120ml),발효토마토 그린샐러드 추가,봄나물 프리타타와 발효토마토 샐러드,봄나물 프리타타와 발효토마토 샐러드(포장),부르고뉴 샤도네(120ml),샌드위치,스파이스 발효 과일 샹그리아(160ml),어 섬 진토닉,작은 오늘의 스프 추가(120ml),큰 오늘의 스프 추가(220ml),템페와 유채 & 삼발 토마토 소스,템페와 유채 & 삼발 토마토 소스(포장)",
    "tel": "01087657560",
    "lat": 37.58471,
    "lng": 126.9722716
  },
  {
    "id": "819578",
    "name": "52푸드",
    "category": "카페",
    "address": "광주광역시 남구 봉선중앙로68번길 5",
    "menu": "52그래놀라볼,52요거트볼,꾸덕왕 그릭요거트 300g,레몬생강차 hot/t스파클링 에이드 ice,마다가스카,바나나 요거트볼,배도라지차 hot/스파클링 에이드 ice,베리 요거트볼,베리판타지,블루베리스무디,비건블랙라떼,비건오트라떼,아보카드스무디,애플망고스무디,애플시나몬 차 hot/스파클링 에이드 ice,코코야,패션후르츠(백향과)차 hot/스파클링 에이드 ice",
    "tel": "0626557373",
    "lat": 35.1272004,
    "lng": 126.9121113
  },
  {
    "id": "824033",
    "name": "꼼빠뇽베이커리",
    "category": "카페",
    "address": "부산광역시 동구 범곡로28번길 16",
    "menu": "갈릭롤치즈빵,녹차라떼,더치라떼,더치커피,레몬에이드,레몬티,무화과빵(비건),밀크티,밤식빵(비건),쑥식빵(비건),쑥팥빵(비건),아메리카노,아인슈페너,올리브치아바타(비건),우유들어간 아인슈페너,우유식빵,초코라떼,치아바타 에그샌드위치,치아바타(비건),치즈식빵,카페라떼,코코넛비스코티,크림치즈팥빵,탕종식빵(비건),통팥빵,통호밀빵(비건),패션블루 스무디,호두크랜베리빵(비건)",
    "tel": "01024253266",
    "lat": 35.1411548,
    "lng": 129.0557867
  },
  {
    "id": "824034",
    "name": "꼼빠뇽베이커리",
    "category": "베이커리",
    "address": "부산광역시 동구 범곡로28번길 16",
    "menu": "갈릭롤치즈빵,녹차라떼,더치라떼,더치커피,레몬에이드,레몬티,무화과빵(비건),밀크티,밤식빵(비건),쑥식빵(비건),쑥팥빵(비건),아메리카노,아인슈페너,올리브치아바타(비건),우유들어간 아인슈페너,우유식빵,초코라떼,치아바타 에그샌드위치,치아바타(비건),치즈식빵,카페라떼,코코넛비스코티,크림치즈팥빵,탕종식빵(비건),통팥빵,통호밀빵(비건),패션블루 스무디,호두크랜베리빵(비건)",
    "tel": "01024253266",
    "lat": 35.1411504,
    "lng": 129.0557862
  },
  {
    "id": "866009",
    "name": "셰발레리",
    "category": "양식",
    "address": "서울특별시 마포구 포은로 52",
    "menu": "Maple Glazed Pecans,Maple Pecan Pie ,마살라 차이 라떼,버섯 크림 감자 뇨끼,블랙 바닐라,비건 와인 콤보 (A),비건 와인 콤보 (A/Rose),비건 와인 콤보 (B),비건 와인 콤보 (B/Rose),비건미트소스 통밀 리가토니,비건와인 (레드/병),비건와인 (레드/잔),비건와인 (로제/병),비건와인 (로제/잔),샹피뇽 (3종 버섯)+시금치파스타,샹피뇽 피자,스텔라,시저 샐러드 (small size),유기농 스파클링 주스,카모마일 메들리,캐나다 드라이,캔디악 피자,콜드브루 몰라세스 라떼,콜드브루 블랙커피,콜드브루 소이라떼,클라우스탈러(무알콜),투메릭 진겨,피치 블로썸,히비스커스 베리",
    "tel": "0260130269",
    "lat": 37.5520665,
    "lng": 126.9069618
  },
  {
    "id": "869040",
    "name": "러브얼스",
    "category": "카페",
    "address": "부산광역시 수영구 광안로49번길 32-1",
    "menu": "감자 물냉이 샐러드,더치 라떼,더치 아메리카노,레드타이 커리,루이보스 바닐라티,무알콜 맥주,바질 페스토 크림파스타,복숭아&홍차 스무디,분다버그 자몽,분다버그 진저,비건 스파이시 버거+감자튀김,서리태 라떼,서리태 아이스 라떼,수박스무디,스트로베리 비건 밀크티,아쌈 비건 밀크티,제주 청귤 에이드,제주도 청귤 에이드,제주도 청귤차,폴드 머쉬룸 바베큐 샌드위치,핫초코 라떼",
    "tel": "07046472420",
    "lat": 35.1564219,
    "lng": 129.1185743
  },
  {
    "id": "879103",
    "name": "그릭팜",
    "category": "카페",
    "address": "서울특별시 종로구 종로 19",
    "menu": "그린팜,라이트베리,망고코코넛,베리베리,베이직볼,보늬밤,비건 변경,사과브라운,산타마을,아보카토,오렌지자몽,요거트 추가(한스쿱),토핑 따로 포장",
    "tel": "01026290441",
    "lat": 37.5708445,
    "lng": 126.9799237
  },
  {
    "id": "891568",
    "name": "코앤텍스트",
    "category": "카페",
    "address": "인천광역시 동구 송림로 12",
    "menu": "깔루아 밀크,깔루아 카푸치노,두유 변경,라씨,라즈베리럼,레몬에이드,로파이 티,망고라씨,바닐라라떼,블랙러시안,블루베리 라떼,블루베리 레몬에이드,블루베리 레몬티,블루베리 콤부차,샤케라또,스모디보울(논비건),스무디보울(비건),아메리카노,월넛 초코칩,위스키 하이볼,진토닉,초코 마카다미아 쿠키,초콜릿 플레이트,치즈 플레이트,카페라떼,크림라떼,피넛버터프레즐(추가),흑임자",
    "tel": "01066169763",
    "lat": 37.4729875,
    "lng": 126.636685
  },
  {
    "id": "896397",
    "name": "슈릴리",
    "category": "카페",
    "address": "광주광역시 동구 용산3길 10",
    "menu": "딸기라떼,딸기레몬,딸기요거트스무디,레몬,레몬티,말차쉐이크,망고 패션후르츠,망고요거트스무디,바나나,바닐라라떼,바닐라밀크쉐이크,바스크 치즈케이크,블루베리레몬,블루베리요거트스무디,비건쿠키,샷 추가,수박,수제요거트(과일),수제요거트(수제청),수제요거트(후레이크),시럽 추가,아메리카노,아포카토,애스프레소,에그타르트,자몽,자몽티,잼추가,제주말차라떼,초코라떼,카라멜 마끼아또,카페라떼,카푸치노,커피쉐이크,크로플,키위,토마토,토마토 바질 스콘,파치츠 스콘,패션후르츠,플레인 스콘,플레인요거트스무디,허브티,헤이즐넛 아메리카노,휘낭시에",
    "tel": "0627107550",
    "lat": 35.1179604,
    "lng": 126.92547
  },
  {
    "id": "898957",
    "name": "로맨틱웨이브",
    "category": "카페",
    "address": "서울특별시 종로구 종로 19",
    "menu": "6종 쿠키,갸토 쇼콜라 케익,고구마라떼(겨울한정),녹차라떼,뉴욕치즈 라운드,다쿠아즈(뚱뚱바),다쿠아즈(로투스),다쿠아즈(말차),다쿠아즈(모카),다쿠아즈(초코 브라우니),다쿠아즈(초코링 얼그레이),다쿠아즈(흑임자),딸기 스무디,딸기라떼,딸기바나나,레몬 생강,레몬 스무디,레몬 캐모마일,레몬커드 라운드,로투스,루이보스,말차 가나슈,밀크티,바나나,바닐라빈라떼,복숭아 스무디,복숭아 에이드,브라운 치즈 크로플,비건 라떼,생강차,샷 추가,수제 레몬 에이드,수제 레몬차,수제 스트로베리 애플,수제 스트로베리 애플 에이드,수제 자몽 에이드,수제 자몽차,수제 크림 추가,시럽 추가,아메리카노,아몬드 크림 라떼,아이스크림 추가,아이스티,아일레스 유자,앙버터,에스프레소,연유 라떼,오레오,오레오 크림치즈 케익,유자 스무디,유자 에이드,유자차,자몽 스무디,자몽 허니블랙티,진한 더블 초코라떼,청포도 스무디,청포도 에이드,초코 브라우니,초코릿칩 얼그레이,초코바나나,카라멜 마끼아또,카페 모카,카페라떼,카푸치노,콜드브",
    "tel": "01033065585",
    "lat": 37.5708445,
    "lng": 126.9799237
  },
  {
    "id": "914456",
    "name": "소랑햄수다",
    "category": "카페",
    "address": "제주특별자치도 제주시 한림읍 일주서로 5673",
    "menu": "A.알콩크로플(더블),A.알콩크로플(싱글),B.달콩크로플(더블),B.달콩크로플(싱글),고메버터스콘,골드메달(사과),달콩 브라우니(더블),달콩 브라우니(미니),달콩 스팀식빵 set,딸기 퐁당 라떼(ICE),레몬에이드(ICE),레몬차,무알콜 하이볼,바나나쉐이크(ICE),바닐라라떼,바스크치즈케이크(1조각),분다버그(망고),분다버그(자몽),아메리카노,아이스크림 추가,아이스크림라떼(ICE),오스트리아 비건 음료,우도땅콩라떼(ICE),제주감귤라떼,제주감귤스콘,제주녹차라떼,초코달콤라떼,카페라떼,콜드브루,큐브연유라떼(ICE),크림라떼,플레인 크로플(싱글 1개),한라봉에이드(ICE),한라봉차,허브차(얼그레이),허브차(캐모마일),허브차(페퍼민트),허브차(히브스커스&체리),현무암 모카(ICE)",
    "tel": "01062353773",
    "lat": 33.4986739,
    "lng": 126.5202544
  },
  {
    "id": "924273",
    "name": "더순수브레드",
    "category": "베이커리",
    "address": "대구광역시 북구 침산로 153",
    "menu": "비건 100% 통밀빵,비건 밤쌀빵,비건 블루베리 쌀빵,비건 시나몬뱅 쌀빵,비건 씨앗호떡 쌀빵,비건 자색고구마 찹쌀 쌀빵,비건 크림 쌀빵",
    "tel": "01082901427",
    "lat": 35.8890266,
    "lng": 128.5897443
  },
  {
    "id": "933096",
    "name": "기웃기웃",
    "category": "카페",
    "address": "서울특별시 성북구 아리랑로19길 13",
    "menu": "녹차라떼(HOT),녹차라떼(ICE),당근케익,디카페인 콜드브루(HOT),디카페인 콜드브루(ICE),레몬 에이드,레몬파운드케익,로즈마리(HOT),로즈마리(ICE),마스코바도 쿠키,마틸다케익,모카라떼(HOT),모카라떼(ICE),믹스 에이드 (택2) ,바닐라라떼(HOT),바닐라라떼(ICE),바스크치즈케익,보늬밤파운드케익,보틀 딸기우유,보틀 밀크티,블랙포레스트쿠키,비건바나나브레드 ,비엔나 라떼(HOT),비엔나 라떼(ICE),샷추가,석류 에이드,수제 레몬차(HOT),수제 레몬차(ICE),수제초코라떼(HOT),수제초코라떼(ICE),순우유 딸기케익,쑥라떼(HOT),쑥라떼(ICE),아메리카노(HOT),아메리카노(ICE),얼그레이 밀크티(HOT),얼그레이 밀크티(ICE),옥수수파운드케익,제주말차파운드케익,초코퍼지케익,카라멜라떼(HOT),카라멜라떼(ICE),카페라떼(HOT),카페라떼(ICE),카푸치노(HOT),카푸치노(ICE),캐모마일(HOT),캐모마일(ICE),캬라멜 추가,크림추가,토피넛라떼(HOT",
    "tel": "07086912721",
    "lat": 37.6024786,
    "lng": 127.012688
  },
  {
    "id": "942405",
    "name": "제주소녀",
    "category": "카페",
    "address": "제주특별자치도 제주시 구좌읍 비자숲길 21",
    "menu": "라떼(HOT),라떼(ICE),마르게리타 취나물 반반 피자,마르게리타 피자,비자림 모닝 주스,사과 루꼴라 샌드위치,쌍화차,아메리카노(HOT),아메리카노(ICE),어린이 유기농 코코아,어린이 유기농 코코아 콜드,오트밀크라떼(HOT),오트밀크라떼(ICE),유기농 호지티 아이스,제주 감자 치아바타,제주 유기농 호지티,제주노을 에이드,청한라봉차,취나물 페스토 피자,칭따오 무알콜,카프리제 샌드위치,콜라,클라우드 제로,한라봉 에이드",
    "tel": "07077387335",
    "lat": 33.4946044,
    "lng": 126.8116135
  },
  {
    "id": "948500",
    "name": "모노보라초",
    "category": "양식",
    "address": "서울특별시 서대문구 연희로15길 39",
    "menu": "Bar 다 박스,노더블딥,살치촌/초리소 변경,시그니쳐 더블,시그니쳐 싱글,시그니쳐 투게더,채식원숭이,하몽세라노 추가",
    "tel": "01026590501",
    "lat": 37.5691415,
    "lng": 126.9299549
  },
  {
    "id": "957890",
    "name": "러브이즈기빙 하트베어",
    "category": "카페",
    "address": "부산광역시 수영구 광남로 159",
    "menu": "감자 물냉이 샐러드,더치 라떼,더치 아메리카노,레드타이 커리,루이보스 바닐라티,무알콜 맥주,바질 페스토 크림파스타,복숭아&홍차 스무디,분다버그 자몽,분다버그 진저,비건 스파이시 버거+감자튀김,서리태 라떼,서리태 아이스 라떼,수박스무디,스트로베리 비건 밀크티,아쌈 비건 밀크티,제주 청귤 에이드,제주도 청귤 에이드,제주도 청귤차,폴드 머쉬룸 바베큐 샌드위치,핫초코 라떼",
    "tel": null,
    "lat": 35.1554767,
    "lng": 129.1182519
  },
  {
    "id": "961071",
    "name": "카페스프라우츠",
    "category": "기타",
    "address": "강원특별자치도 강릉시 하평5길 17",
    "menu": "당근주스,라구 라자냐,레몬에이드,레몬차,루드베리,미니브리치즈(25g),미니샐러드(모짜렐라샐러드),바닐라라떼(HOT),바닐라라떼(ICE),버터포션(가염/10g),복숭아아이스티,비건 라자냐,사워도우빵과 버터(1인분),생강라떼,생오렌지 착즙주스,생오렌지+당근 주스,샷 추가,수제딸기잼,스윗마마,아메리카노(HOT),아메리카노(ICE),아인슈페너,알랭밀리아잼,애플주스,에스프레소(HOT),오늘의 스프,우유를 두유로 변경,이즈니버터(우염/50g),잠봉뵈르 바게트 샌드위치,잠봉에멘탈 바게트 샌드위치,카페라떼(HOT),카페라떼(ICE),카푸치노(HOT),콰트로치즈 치아바타 파니니,크림브륄레라떼,크림치즈(20g),클로티드크림,하몽모짜렐라 베이글 샌드위치",
    "tel": "01087161866",
    "lat": 37.771438,
    "lng": 128.9170355
  },
  {
    "id": "964451",
    "name": "커피임당",
    "category": "카페",
    "address": "서울특별시 영등포구 여의대방로 394",
    "menu": "녹차라떼,녹차샷라떼,당근케이크,더블치즈케이크,딸기요거트스무디,딸기크림치즈토스트,레드오렌지,레몬차,레몬파운드,말차쇼콜라케이크,말차스콘,말차파운드,망고요거트스무디,밀크크레이프,밀크티라떼,바닐라라떼,반반임당,번트치즈케이크,블루베리요거트스무디,비건 바나나 파운드,비건 호구마 파운드,비건 흑임자 인절미 크럼블,생강차,아메리카노,아이스티,아침임당,앗카야임당,얼그레이레몬스콘,얼그레이쇼콜라케이크,에그타르트,연유라떼,오곡라떼,오렌지에이드,오미자에이드,유자에이드,유자차,자몽에이드,자몽차,청포도에이드,초코 가나슈 파운드,초코라떼,초코스콘,카라멜마끼아또,카야토스트,카페라떼,카페모카,캐모마일,코코넛스무디,코코넛커피스무디,토피넛라떼,패션푸르츠에이드,페레로왕슈,페퍼민트,플레인스콘,플레인요거트스무디,한라봉홍차케이크,헤이즐넛라떼,흑임자 바스크 치즈케이크,흑임자파운드,히비스커스",
    "tel": "07080989755",
    "lat": 37.519391,
    "lng": 126.9327655
  },
  {
    "id": "967045",
    "name": "그로그로카페",
    "category": "카페",
    "address": null,
    "menu": "국화차,녹차라떼,단팥빵 세트,딸기요거트스무디,레몬에이드,바닐라라떼,블루베리요거트스무디,비건 녹차라떼,비건 바닐라라떼,비건 오곡라떼,비건 초코라떼,비건 카라멜마끼아또,비건 카페라떼,비건 카페모카,비건 카푸치노,비건 플랫화이트,샌드위치 세트,시나몬라떼,아메리카노,아인슈패너,얼그레이,에스프레소,에스프레소 콘파냐,오곡라떼,오렌지에이드,자몽에이드,초코라떼,카라멜마끼아또,카페라떼,카페모카,카푸치노,크림라떼,파이 세트,페퍼민트,플랫화이트,현미빵 세트",
    "tel": "01024793958",
    "lat": 37.4782566,
    "lng": 126.9515212
  },
  {
    "id": "967103",
    "name": "비건비거닝",
    "category": "카페",
    "address": "서울특별시 강남구 선릉로85길 6",
    "menu": "K-유기농 비건 시그니처 Gift Set,Set1,Set2,SLIM 차 (다이어트차),구례 라임차,데일리 건강 블렌딩 수제차,데일리 커피,디카페인 아메리카노,딸기 오트 라떼,라임 에이드,레몬 에이드,면역력에 좋은 차 (바이러스 예방·사멸),문경 오미자차,미네랄 워터,바닐라 오트 라떼,비건 버터 추가,시그니처 샌드위치,시그니처 샐러드,식물성 프로틴 쉐이크,아메리카노,에스프레소,오미자 에이드,오트 라떼,이시형 닥터 캐롯 면역 쥬스,제주 레몬차,제주 청귤차,제주 황금차,청귤 에이드,탄산수,팥 오트 쉐이크,황금 에이드,흑임자 오트 라떼",
    "tel": "027405060",
    "lat": 37.5030264,
    "lng": 127.0491089
  },
  {
    "id": "968336",
    "name": "베러초이스",
    "category": "카페",
    "address": "서울특별시 성동구 연무장5길 9-13",
    "menu": "단백빵빵 고식이섬유 식빵,단백빵빵 비건 마늘스틱,단백빵빵 비건 머핀,단백빵빵 비건 소보로 빵,단백빵빵 비건 시나몬 롤,단백빵빵 비건 앙금빵,단백빵빵 야채 비건 모닝빵,단백빵빵바게트",
    "tel": "07077732018",
    "lat": 37.5441851,
    "lng": 127.0521032
  }
]
